rosbagTimestamp,transforms,-,header,seq,secs,nsecs,frame_id,child_frame_id,transform,translation,x,y,z,rotation,x,y,z,w
1.61642732247807E+018,,,0,,1616427322,404303463,"""rgb_camera_link""","""obj-10""",,,0.167225399608,-0.0533544365955,0.884989381106,,-0.624776037429,0.727003454317,-0.220980682374,-0.179689784024
1.61642732247809E+018,,,0,,1616427322,404303463,"""rgb_camera_link""","""obj-3""",,,-0.0549638250692,-0.0199361384922,0.867842216065,,-0.608704318503,0.744556917682,-0.217839903469,-0.166312433162
1.61642732247809E+018,,,0,,1616427322,404303463,"""rgb_camera_link""","""obj-4""",,,-0.0983619453426,-0.183958541524,0.967768829192,,-0.646214614012,0.709548577124,-0.214878775798,-0.181037568064
1.61642732247809E+018,,,0,,1616427322,404303463,"""rgb_camera_link""","""obj-12""",,,-0.0223401206222,0.118712775829,0.773202134866,,-0.595116747145,0.755255360962,-0.191282183894,-0.197069843282
1.61642732251522E+018,,,0,,1616427322,437652333,"""rgb_camera_link""","""obj-10""",,,0.167104076895,-0.0533523470221,0.884265085383,,-0.624186084926,0.727097038874,-0.222247685213,-0.179798759346
1.61642732251524E+018,,,0,,1616427322,437652333,"""rgb_camera_link""","""obj-4""",,,-0.0983592399857,-0.183918677941,0.967593289112,,-0.645917300186,0.709796554339,-0.215134270067,-0.180822948242
1.61642732251529E+018,,,0,,1616427322,437652333,"""rgb_camera_link""","""obj-3""",,,-0.054931817376,-0.019917250957,0.867678988312,,-0.608343674346,0.744925781642,-0.217794081625,-0.166040030527
1.61642732251531E+018,,,0,,1616427322,437652333,"""rgb_camera_link""","""obj-12""",,,-0.022328010143,0.11871828864,0.773303309424,,-0.595390815531,0.754916115371,-0.192349646131,-0.196502033493
1.6164273225487E+018,,,0,,1616427322,470985940,"""rgb_camera_link""","""obj-10""",,,0.167088999024,-0.0533523630166,0.884335641205,,-0.62436417934,0.727241578224,-0.222030817097,-0.17886132818
1.61642732254871E+018,,,0,,1616427322,470985940,"""rgb_camera_link""","""obj-4""",,,-0.0982839954601,-0.183811840667,0.967028071442,,-0.646340411147,0.709360541934,-0.214808255433,-0.181408676372
1.61642732254872E+018,,,0,,1616427322,470985940,"""rgb_camera_link""","""obj-3""",,,-0.0549851771484,-0.0199506045991,0.868149365682,,-0.608533407369,0.744832388968,-0.217126283292,-0.166637275436
1.61642732254872E+018,,,0,,1616427322,470985940,"""rgb_camera_link""","""obj-12""",,,-0.0223288081665,0.118641893755,0.772821209655,,-0.59508580848,0.754866083898,-0.191955212317,-0.197998162592
1.61642732258177E+018,,,0,,1616427322,504339387,"""rgb_camera_link""","""obj-4""",,,-0.0983588844967,-0.18395613683,0.967665484639,,-0.646086180036,0.70967144148,-0.215035727133,-0.180827899316
1.61642732258178E+018,,,0,,1616427322,504339387,"""rgb_camera_link""","""obj-3""",,,-0.0549241088132,-0.019927871792,0.867407052579,,-0.608238916909,0.744802846522,-0.218344728078,-0.166251975898
1.61642732258181E+018,,,0,,1616427322,504339387,"""rgb_camera_link""","""obj-10""",,,0.166962643044,-0.0532887502148,0.883788751389,,-0.624573735957,0.726753091496,-0.223014056475,-0.178891930975
1.61642732258182E+018,,,0,,1616427322,504339387,"""rgb_camera_link""","""obj-12""",,,-0.0223201531298,0.118679630329,0.772976877349,,-0.595313876803,0.754864247924,-0.19300632463,-0.196290381694
1.61642732261588E+018,,,0,,1616427322,537671683,"""rgb_camera_link""","""obj-3""",,,-0.0549325734304,-0.0198720895264,0.867329188518,,-0.608305629767,0.745222878706,-0.21733855203,-0.165442061301
1.6164273226159E+018,,,0,,1616427322,537671683,"""rgb_camera_link""","""obj-4""",,,-0.0983289804083,-0.183894382363,0.967355192664,,-0.646002360645,0.709810718991,-0.215406682913,-0.180137875536
1.61642732261595E+018,,,0,,1616427322,537671683,"""rgb_camera_link""","""obj-12""",,,-0.0223251422471,0.118689131892,0.773228402231,,-0.595444848603,0.754827931194,-0.19186089711,-0.197153804737
1.61642732261595E+018,,,0,,1616427322,537671683,"""rgb_camera_link""","""obj-10""",,,0.167159524942,-0.0533476227483,0.884624629541,,-0.624682715341,0.726920221901,-0.221620220492,-0.179563286936
1.6164273226488E+018,,,0,,1616427322,571013444,"""rgb_camera_link""","""obj-4""",,,-0.0983841364865,-0.183989588453,0.967956953161,,-0.646203574018,0.709472092091,-0.215097896317,-0.181116499717
1.61642732264881E+018,,,0,,1616427322,571013444,"""rgb_camera_link""","""obj-10""",,,0.167104447564,-0.0533356817291,0.884259935154,,-0.62436977402,0.726992189371,-0.22168909882,-0.180273917551
1.61642732264882E+018,,,0,,1616427322,571013444,"""rgb_camera_link""","""obj-3""",,,-0.0549540479987,-0.0199186422076,0.867973716537,,-0.608400437766,0.744871734995,-0.218016583033,-0.16578231285
1.61642732264887E+018,,,0,,1616427322,571013444,"""rgb_camera_link""","""obj-12""",,,-0.0223212034116,0.118710915565,0.773297489902,,-0.595226988242,0.755094326363,-0.192036005381,-0.196620353472
1.61642732268017E+018,,,0,,1616427322,604358646,"""rgb_camera_link""","""obj-10""",,,0.167043543812,-0.0533359723327,0.884183261274,,-0.624313481112,0.727057312027,-0.222641157936,-0.179028648885
1.61642732268018E+018,,,0,,1616427322,604358646,"""rgb_camera_link""","""obj-4""",,,-0.0983593369046,-0.183938486455,0.967723312463,,-0.645949596201,0.70989249985,-0.214877136647,-0.180636579825
1.61642732268023E+018,,,0,,1616427322,604358646,"""rgb_camera_link""","""obj-3""",,,-0.0549347268996,-0.0199205693656,0.867600691698,,-0.608498422389,0.744967413154,-0.217750524038,-0.165341865751
1.61642732268023E+018,,,0,,1616427322,604358646,"""rgb_camera_link""","""obj-12""",,,-0.0223112397321,0.118672494854,0.772874750994,,-0.595046193913,0.754848203403,-0.192178027156,-0.197969247127
1.61642732271247E+018,,,0,,1616427322,637700532,"""rgb_camera_link""","""obj-10""",,,0.167171515972,-0.0533487648286,0.884761755419,,-0.62475110964,0.726979240063,-0.221305788097,-0.179474186653
1.6164273227125E+018,,,0,,1616427322,637700532,"""rgb_camera_link""","""obj-3""",,,-0.0549730300923,-0.0198780669188,0.868144114871,,-0.608962380273,0.744910260698,-0.216741993836,-0.165216315862
1.6164273227125E+018,,,0,,1616427322,637700532,"""rgb_camera_link""","""obj-4""",,,-0.0983395693304,-0.183931844006,0.967701137109,,-0.64591714013,0.709878810677,-0.215185492042,-0.180439259177
1.61642732271251E+018,,,0,,1616427322,637700532,"""rgb_camera_link""","""obj-12""",,,-0.0223363446366,0.11871435366,0.773272446126,,-0.595494578342,0.754951034519,-0.19229524483,-0.196106301428
1.61642732274523E+018,,,0,,1616427322,671044649,"""rgb_camera_link""","""obj-3""",,,-0.0549107025025,-0.0199156616567,0.867492009549,,-0.6084852444,0.744735718371,-0.218571711176,-0.165350609926
1.61642732274523E+018,,,0,,1616427322,671044649,"""rgb_camera_link""","""obj-4""",,,-0.0983752432054,-0.183984600675,0.967961448488,,-0.645896716709,0.70987147336,-0.215575608454,-0.18007520566
1.61642732274524E+018,,,0,,1616427322,671044649,"""rgb_camera_link""","""obj-10""",,,0.167040737894,-0.0533027055902,0.883824908782,,-0.624272987368,0.726899929413,-0.22324329102,-0.17905910442
1.61642732274524E+018,,,0,,1616427322,671044649,"""rgb_camera_link""","""obj-12""",,,-0.0223433307536,0.118715855585,0.773163562081,,-0.595258012395,0.754879521033,-0.192155049618,-0.197233983661
1.61642732277746E+018,,,0,,1616427322,704389760,"""rgb_camera_link""","""obj-10""",,,0.16704448144,-0.0533270128918,0.884107045627,,-0.624333606206,0.726963893996,-0.222856735569,-0.179069596526
1.6164273227775E+018,,,0,,1616427322,704389760,"""rgb_camera_link""","""obj-4""",,,-0.0983433845445,-0.18395186855,0.967735789971,,-0.645321025502,0.710240563092,-0.216140402106,-0.180006786431
1.61642732277751E+018,,,0,,1616427322,704389760,"""rgb_camera_link""","""obj-3""",,,-0.0548786151506,-0.0198885661953,0.867213866723,,-0.608903509303,0.744681504553,-0.218302341025,-0.164408214635
1.61642732277754E+018,,,0,,1616427322,704389760,"""rgb_camera_link""","""obj-12""",,,-0.0223459434685,0.118724442025,0.77328905577,,-0.595436966002,0.754758808772,-0.192113679841,-0.19719608038
1.61642732281337E+018,,,0,,1616427322,737744596,"""rgb_camera_link""","""obj-10""",,,0.167104844856,-0.0533333402116,0.884338704507,,-0.624712123877,0.726828301809,-0.221282746079,-0.180247963261
1.61642732281339E+018,,,0,,1616427322,737744596,"""rgb_camera_link""","""obj-3""",,,-0.054946089709,-0.0199176609825,0.867957913981,,-0.608446738222,0.744937587412,-0.21774929812,-0.16566774211
1.61642732281341E+018,,,0,,1616427322,737744596,"""rgb_camera_link""","""obj-4""",,,-0.0983421829914,-0.18390786076,0.967438667328,,-0.645883444039,0.709670430853,-0.215045933621,-0.181542564493
1.61642732281343E+018,,,0,,1616427322,737744596,"""rgb_camera_link""","""obj-12""",,,-0.0223171229878,0.118677741694,0.772922562488,,-0.595273889757,0.754836707799,-0.193389517267,-0.196140346039
1.61642732284678E+018,,,0,,1616427322,771089673,"""rgb_camera_link""","""obj-4""",,,-0.0983112978741,-0.183858916908,0.967221479884,,-0.645713950485,0.709996861464,-0.214967905064,-0.180960632881
1.61642732284679E+018,,,0,,1616427322,771089673,"""rgb_camera_link""","""obj-10""",,,0.167095199187,-0.0533526721439,0.884418041294,,-0.624055290324,0.72716246322,-0.222704867139,-0.1794220969
1.61642732284679E+018,,,0,,1616427322,771089673,"""rgb_camera_link""","""obj-3""",,,-0.0549530259435,-0.0199296245908,0.868048182898,,-0.608656207898,0.744686809705,-0.217404054621,-0.166477184842
1.6164273228468E+018,,,0,,1616427322,771089673,"""rgb_camera_link""","""obj-12""",,,-0.0223137323393,0.118635393344,0.772950755009,,-0.595118241361,0.754968096959,-0.191997315526,-0.197470205865
1.61642732287672E+018,,,0,,1616427322,804446990,"""rgb_camera_link""","""obj-4""",,,-0.0983484953144,-0.183928550046,0.96762787431,,-0.646347049891,0.709489854836,-0.21412531559,-0.181686505291
1.61642732287673E+018,,,0,,1616427322,804446990,"""rgb_camera_link""","""obj-3""",,,-0.0549215003715,-0.0198987235738,0.867318120585,,-0.608844710743,0.744554009329,-0.21738939026,-0.166401016809
1.61642732287673E+018,,,0,,1616427322,804446990,"""rgb_camera_link""","""obj-10""",,,0.167058477081,-0.0533199858381,0.884166365814,,-0.624426405976,0.726966257401,-0.222886234874,-0.178699329666
1.61642732287674E+018,,,0,,1616427322,804446990,"""rgb_camera_link""","""obj-12""",,,-0.0223405821169,0.118756719894,0.773295557068,,-0.595219993519,0.754951885698,-0.193205351412,-0.196042091863
1.61642732290964E+018,,,0,,1616427322,837789399,"""rgb_camera_link""","""obj-4""",,,-0.0983256674207,-0.183906874996,0.967453040987,,-0.646243882771,0.709470739477,-0.215000572757,-0.181093532524
1.61642732290966E+018,,,0,,1616427322,837789399,"""rgb_camera_link""","""obj-10""",,,0.167067580811,-0.0533159181577,0.884229487637,,-0.624458060966,0.727030382414,-0.222427361579,-0.178899474463
1.61642732290968E+018,,,0,,1616427322,837789399,"""rgb_camera_link""","""obj-3""",,,-0.0549184010365,-0.0199139272678,0.867405322026,,-0.608647279414,0.744624572838,-0.218052554925,-0.165939199948
1.61642732290968E+018,,,0,,1616427322,837789399,"""rgb_camera_link""","""obj-12""",,,-0.0223221913408,0.118646261057,0.772739855055,,-0.595052758802,0.755116785202,-0.1916005651,-0.197484375084
1.61642732294351E+018,,,0,,1616427322,871125982,"""rgb_camera_link""","""obj-3""",,,-0.0549325230152,-0.0199226609052,0.867801390391,,-0.608334731177,0.744855386594,-0.218193417701,-0.165864222718
1.61642732294353E+018,,,0,,1616427322,871125982,"""rgb_camera_link""","""obj-10""",,,0.166859051385,-0.0532475807325,0.882947591046,,-0.623872779085,0.726932982134,-0.22387131099,-0.179535041479
1.61642732294353E+018,,,0,,1616427322,871125982,"""rgb_camera_link""","""obj-4""",,,-0.0983381637792,-0.183977576374,0.96764305811,,-0.645978038798,0.709512449858,-0.215593409119,-0.181173780754
1.61642732294354E+018,,,0,,1616427322,871125982,"""rgb_camera_link""","""obj-12""",,,-0.0223157006759,0.11866069308,0.772970391075,,-0.595350098404,0.7546345151,-0.193699986745,-0.196380559338
1.61642732297884E+018,,,0,,1616427322,904479032,"""rgb_camera_link""","""obj-10""",,,0.167042997237,-0.0533241092309,0.883921844156,,-0.624299006365,0.727049145926,-0.222110688562,-0.179769663978
1.61642732297885E+018,,,0,,1616427322,904479032,"""rgb_camera_link""","""obj-4""",,,-0.0983796446982,-0.183992463165,0.967962716959,,-0.645773939098,0.709867063281,-0.215382578608,-0.180762598129
1.61642732297886E+018,,,0,,1616427322,904479032,"""rgb_camera_link""","""obj-3""",,,-0.0549357913217,-0.0199038864959,0.867794777009,,-0.60872380853,0.744792697471,-0.218353638975,-0.164501826949
1.61642732297886E+018,,,0,,1616427322,904479032,"""rgb_camera_link""","""obj-12""",,,-0.0223256583164,0.118688906271,0.773033862004,,-0.595334086509,0.754897568138,-0.192176611273,-0.196914034897
1.61642732301254E+018,,,0,,1616427322,937832358,"""rgb_camera_link""","""obj-3""",,,-0.0549584693938,-0.0199015948619,0.867778209511,,-0.608741121481,0.744718869435,-0.216887157786,-0.166697370443
1.61642732301255E+018,,,0,,1616427322,937832358,"""rgb_camera_link""","""obj-10""",,,0.167278184186,-0.0533798427369,0.885258686374,,-0.624855184955,0.727171692812,-0.220675404327,-0.179108048206
1.61642732301256E+018,,,0,,1616427322,937832358,"""rgb_camera_link""","""obj-4""",,,-0.0983716564343,-0.183995056492,0.967935939933,,-0.645675188406,0.709968504064,-0.215621500634,-0.180431823078
1.61642732301257E+018,,,0,,1616427322,937832358,"""rgb_camera_link""","""obj-12""",,,-0.0223089972259,0.118648695491,0.77282816094,,-0.595192892734,0.75508077642,-0.191244119278,-0.19754525649
1.6164273230446E+018,,,0,,1616427322,971179198,"""rgb_camera_link""","""obj-4""",,,-0.098328592961,-0.183896230554,0.967446940378,,-0.645937908597,0.709681871451,-0.215417929843,-0.180861756804
1.61642732304461E+018,,,0,,1616427322,971179198,"""rgb_camera_link""","""obj-3""",,,-0.0549368682844,-0.0199370776459,0.867410830354,,-0.608735164231,0.744173754538,-0.219663061095,-0.16551453856
1.61642732304461E+018,,,0,,1616427322,971179198,"""rgb_camera_link""","""obj-10""",,,0.167153011017,-0.0533239510492,0.884453859241,,-0.624721795324,0.726771002143,-0.221930500629,-0.179648105424
1.61642732304462E+018,,,0,,1616427322,971179198,"""rgb_camera_link""","""obj-12""",,,-0.0223235711527,0.11869170653,0.773124010952,,-0.595206507368,0.755043636231,-0.191706510609,-0.197197704764
1.61642732307937E+018,,,0,,1616427323,4528925,"""rgb_camera_link""","""obj-4""",,,-0.0983221483644,-0.183887253236,0.967408885784,,-0.646024658347,0.709698952568,-0.215462109436,-0.180431751442
1.61642732307938E+018,,,0,,1616427323,4528925,"""rgb_camera_link""","""obj-3""",,,-0.0549574130475,-0.0199135188899,0.86800027303,,-0.608463006936,0.744927327964,-0.21799084934,-0.165336126864
1.61642732307939E+018,,,0,,1616427323,4528925,"""rgb_camera_link""","""obj-10""",,,0.166937199787,-0.0532782165149,0.883335263938,,-0.624278095127,0.726720148506,-0.223620395828,-0.179300318658
1.6164273230794E+018,,,0,,1616427323,4528925,"""rgb_camera_link""","""obj-12""",,,-0.0223356550208,0.118742288264,0.773433921082,,-0.595543116391,0.754971901894,-0.191643181911,-0.196516448921
1.6164273231093E+018,,,0,,1616427323,37895525,"""rgb_camera_link""","""obj-10""",,,0.167023207608,-0.0533138616209,0.884028065776,,-0.624475327307,0.726987048325,-0.222628799196,-0.178764691486
1.61642732310931E+018,,,0,,1616427323,37895525,"""rgb_camera_link""","""obj-3""",,,-0.0549609403708,-0.0199166492431,0.86818387697,,-0.609011098964,0.744584998711,-0.217490053551,-0.165519598958
1.61642732310932E+018,,,0,,1616427323,37895525,"""rgb_camera_link""","""obj-4""",,,-0.0983346373474,-0.183920815053,0.967495729444,,-0.646144227079,0.709471961415,-0.216103936171,-0.180128461241
1.61642732310933E+018,,,0,,1616427323,37895525,"""rgb_camera_link""","""obj-12""",,,-0.02232841726,0.118725322136,0.77324386445,,-0.595202774148,0.754908969371,-0.19220081711,-0.197243381416
1.61642732314294E+018,,,0,,1616427323,71244384,"""rgb_camera_link""","""obj-4""",,,-0.0983302277306,-0.183886300297,0.967438363785,,-0.646162986211,0.709561116103,-0.214998530138,-0.18103052175
1.61642732314296E+018,,,0,,1616427323,71244384,"""rgb_camera_link""","""obj-3""",,,-0.0549231812807,-0.0199467529835,0.867474507909,,-0.608117109136,0.744799546884,-0.218680987948,-0.166270388369
1.61642732314297E+018,,,0,,1616427323,71244384,"""rgb_camera_link""","""obj-10""",,,0.16719589561,-0.0533542210632,0.884597312926,,-0.624615138292,0.727089840544,-0.221030098783,-0.179838783988
1.61642732314297E+018,,,0,,1616427323,71244384,"""rgb_camera_link""","""obj-12""",,,-0.0223157040722,0.118643120644,0.77271157779,,-0.595213910749,0.754858032637,-0.191783962596,-0.19780966282
1.61642732317668E+018,,,0,,1616427323,104583868,"""rgb_camera_link""","""obj-10""",,,0.167288825406,-0.0533696169626,0.88530697479,,-0.624629635566,0.727295528625,-0.220678168792,-0.179388344753
1.61642732317669E+018,,,0,,1616427323,104583868,"""rgb_camera_link""","""obj-3""",,,-0.0548879547309,-0.0199003298523,0.86725731389,,-0.60886631473,0.744436874675,-0.218519278692,-0.165362859348
1.6164273231767E+018,,,0,,1616427323,104583868,"""rgb_camera_link""","""obj-4""",,,-0.0983163963578,-0.183910657854,0.967469268476,,-0.645780346616,0.709863111766,-0.215454211414,-0.180669834955
1.6164273231767E+018,,,0,,1616427323,104583868,"""rgb_camera_link""","""obj-12""",,,-0.0223179655062,0.118689757108,0.773130344815,,-0.595082713351,0.755116670502,-0.192952597566,-0.196073132512
1.6164273232106E+018,,,0,,1616427323,137942294,"""rgb_camera_link""","""obj-10""",,,0.167248301547,-0.0533940076195,0.885199907968,,-0.624550719562,0.727033188821,-0.221971475436,-0.179130692903
1.61642732321061E+018,,,0,,1616427323,137942294,"""rgb_camera_link""","""obj-4""",,,-0.0982508023847,-0.183747591291,0.966682145843,,-0.646058503928,0.709479687041,-0.215632904531,-0.18096804597
1.61642732321062E+018,,,0,,1616427323,137942294,"""rgb_camera_link""","""obj-3""",,,-0.0549345190726,-0.0199179034307,0.867509253642,,-0.60867000893,0.744514597858,-0.218167196368,-0.166198400217
1.61642732321062E+018,,,0,,1616427323,137942294,"""rgb_camera_link""","""obj-12""",,,-0.0223215734314,0.118696354834,0.773128904017,,-0.595126651583,0.755017810932,-0.192333821085,-0.196926572657
1.61642732324346E+018,,,0,,1616427323,171283298,"""rgb_camera_link""","""obj-4""",,,-0.0983671380033,-0.184006434469,0.967936788681,,-0.646130041458,0.709745544571,-0.215319800279,-0.180040592907
1.61642732324348E+018,,,0,,1616427323,171283298,"""rgb_camera_link""","""obj-3""",,,-0.0549133095396,-0.0198938986407,0.867485163228,,-0.608297674309,0.744768563986,-0.2196499895,-0.164461568887
1.61642732324349E+018,,,0,,1616427323,171283298,"""rgb_camera_link""","""obj-10""",,,0.167010669803,-0.0533221353573,0.883807089681,,-0.623940521448,0.727171810089,-0.223585575146,-0.178686526894
1.6164273232435E+018,,,0,,1616427323,171283298,"""rgb_camera_link""","""obj-12""",,,-0.0223186635387,0.118740500387,0.773263339776,,-0.595271621561,0.755172923338,-0.192042953566,-0.196176085208
1.61642732327541E+018,,,0,,1616427323,204626396,"""rgb_camera_link""","""obj-4""",,,-0.0983941436863,-0.184004932004,0.967964848156,,-0.646103090248,0.709655297223,-0.214567441766,-0.181386242113
1.61642732327542E+018,,,0,,1616427323,204626396,"""rgb_camera_link""","""obj-3""",,,-0.0549378406838,-0.0199033344444,0.867745372714,,-0.608171421927,0.74507860044,-0.217767935309,-0.166019658683
1.61642732327547E+018,,,0,,1616427323,204626396,"""rgb_camera_link""","""obj-10""",,,0.167221353169,-0.0533797551839,0.885032157999,,-0.624316758545,0.72729414948,-0.221897946643,-0.178977949502
1.61642732327547E+018,,,0,,1616427323,204626396,"""rgb_camera_link""","""obj-12""",,,-0.0223241090856,0.118657573361,0.772919628445,,-0.59504313946,0.755115557526,-0.191328631984,-0.197781474228
1.61642732331169E+018,,,0,,1616427323,237966209,"""rgb_camera_link""","""obj-3""",,,-0.0549473533385,-0.019907179781,0.867712628553,,-0.60855372013,0.744998748491,-0.217599220029,-0.165196289021
1.6164273233117E+018,,,0,,1616427323,237966209,"""rgb_camera_link""","""obj-10""",,,0.167169969024,-0.0533635700437,0.884592407588,,-0.624693262381,0.726926992733,-0.221698028714,-0.17940306362
1.6164273233117E+018,,,0,,1616427323,237966209,"""rgb_camera_link""","""obj-4""",,,-0.0983582757124,-0.183958237577,0.967704190072,,-0.645863140602,0.709899399166,-0.215318542378,-0.180392826862
1.61642732331171E+018,,,0,,1616427323,237966209,"""rgb_camera_link""","""obj-12""",,,-0.022323999381,0.118684936364,0.773067998877,,-0.595308953508,0.754882775178,-0.19250066149,-0.19673012209
1.61642732334415E+018,,,0,,1616427323,271297457,"""rgb_camera_link""","""obj-10""",,,0.167224811355,-0.0533641403962,0.884825233282,,-0.624611227481,0.727162128966,-0.22078313008,-0.179863454247
1.61642732334416E+018,,,0,,1616427323,271297457,"""rgb_camera_link""","""obj-4""",,,-0.0983632538974,-0.183974682046,0.967793241692,,-0.645892584664,0.709936600938,-0.214629087873,-0.180961726241
1.61642732334416E+018,,,0,,1616427323,271297457,"""rgb_camera_link""","""obj-3""",,,-0.054939776491,-0.0199320773954,0.867559519859,,-0.60795435538,0.745043693448,-0.217590429665,-0.167199885006
1.61642732334419E+018,,,0,,1616427323,271297457,"""rgb_camera_link""","""obj-12""",,,-0.0223454760405,0.118706441917,0.773217687318,,-0.595541207754,0.754940592915,-0.191024491352,-0.197243541691
1.61642732337404E+018,,,0,,1616427323,304652984,"""rgb_camera_link""","""obj-3""",,,-0.05490695837,-0.0198920693734,0.867142384354,,-0.608583077903,0.744683861494,-0.21842485376,-0.16541815795
1.61642732337405E+018,,,0,,1616427323,304652984,"""rgb_camera_link""","""obj-10""",,,0.16710199057,-0.0533419742189,0.88422534059,,-0.62453316389,0.726785399705,-0.222482284571,-0.179563200653
1.61642732337411E+018,,,0,,1616427323,304652984,"""rgb_camera_link""","""obj-4""",,,-0.098362260405,-0.184006831508,0.96796614711,,-0.646285672117,0.709514319204,-0.214521020139,-0.181342198011
1.61642732337411E+018,,,0,,1616427323,304652984,"""rgb_camera_link""","""obj-12""",,,-0.0223420829443,0.118663590072,0.772891276929,,-0.594768383566,0.755255489193,-0.191044379714,-0.198347576071
1.61642732341111E+018,,,0,,1616427323,338000356,"""rgb_camera_link""","""obj-4""",,,-0.0983660482125,-0.18390739524,0.96747976899,,-0.646117157526,0.709645372996,-0.214652321091,-0.181274500102
1.61642732341112E+018,,,0,,1616427323,338000356,"""rgb_camera_link""","""obj-3""",,,-0.054911624339,-0.0198833825175,0.867499989056,,-0.608503468798,0.744746894697,-0.218692438496,-0.16507334323
1.61642732341113E+018,,,0,,1616427323,338000356,"""rgb_camera_link""","""obj-10""",,,0.167030361342,-0.0533223702403,0.883817608945,,-0.624670717835,0.726662301843,-0.222506534305,-0.179552876754
1.61642732341114E+018,,,0,,1616427323,338000356,"""rgb_camera_link""","""obj-12""",,,-0.0223332355706,0.118677363836,0.772987669622,,-0.594909016572,0.754865487989,-0.192908750987,-0.197604582025
1.61642732344411E+018,,,0,,1616427323,371342845,"""rgb_camera_link""","""obj-4""",,,-0.0983089320108,-0.183872936487,0.967318046674,,-0.646285364098,0.709487321692,-0.214663259817,-0.181280592995
1.61642732344411E+018,,,0,,1616427323,371342845,"""rgb_camera_link""","""obj-3""",,,-0.0549286529119,-0.019929536083,0.867855692846,,-0.608246462279,0.744890772237,-0.218316480937,-0.165867093516
1.61642732344412E+018,,,0,,1616427323,371342845,"""rgb_camera_link""","""obj-10""",,,0.166927996666,-0.0532838458964,0.883278800755,,-0.624241407076,0.72681888408,-0.22300699133,-0.179791148986
1.61642732344414E+018,,,0,,1616427323,371342845,"""rgb_camera_link""","""obj-12""",,,-0.0223146434607,0.118629186113,0.772702595834,,-0.594820145332,0.754900528439,-0.193107635968,-0.197543989532
1.61642732347758E+018,,,0,,1616427323,404673666,"""rgb_camera_link""","""obj-3""",,,-0.0548852650581,-0.0198907036654,0.867193579494,,-0.608456470774,0.744670954372,-0.219074896434,-0.165082048207
1.61642732347759E+018,,,0,,1616427323,404673666,"""rgb_camera_link""","""obj-10""",,,0.167109296179,-0.0533279413618,0.884186874572,,-0.624595514197,0.726961541612,-0.221869488801,-0.179391445171
1.6164273234776E+018,,,0,,1616427323,404673666,"""rgb_camera_link""","""obj-4""",,,-0.0984115030481,-0.183988583915,0.967903571361,,-0.646041755468,0.70969210043,-0.215023423543,-0.180920148428
1.61642732347763E+018,,,0,,1616427323,404673666,"""rgb_camera_link""","""obj-12""",,,-0.0223345878046,0.11871716485,0.773203556414,,-0.595375610377,0.754897590723,-0.190898401855,-0.198028559199
1.61642732350954E+018,,,0,,1616427323,438026864,"""rgb_camera_link""","""obj-4""",,,-0.0983240077368,-0.183902439148,0.967524907539,,-0.645915562916,0.709882363642,-0.21494117947,-0.180721898898
1.61642732350954E+018,,,0,,1616427323,438026864,"""rgb_camera_link""","""obj-3""",,,-0.0548859646423,-0.0198955412213,0.867108115537,,-0.608258851543,0.74468301167,-0.218983512734,-0.165875262775
1.61642732350955E+018,,,0,,1616427323,438026864,"""rgb_camera_link""","""obj-10""",,,0.167145732331,-0.0533275011964,0.884565001007,,-0.62419010878,0.727294098167,-0.222169735563,-0.179082694509
1.61642732350956E+018,,,0,,1616427323,438026864,"""rgb_camera_link""","""obj-12""",,,-0.0223402943361,0.118697634199,0.773156579218,,-0.595435435878,0.754814452004,-0.192117997631,-0.196983399638
1.61642732354222E+018,,,0,,1616427323,471370543,"""rgb_camera_link""","""obj-4""",,,-0.098391791271,-0.184006751822,0.968015370793,,-0.645776736873,0.709940249377,-0.215517239615,-0.180304098278
1.61642732354223E+018,,,0,,1616427323,471370543,"""rgb_camera_link""","""obj-3""",,,-0.0549257571129,-0.0199079569647,0.867608440156,,-0.608768523657,0.744538949065,-0.218631555929,-0.165114750046
1.61642732354224E+018,,,0,,1616427323,471370543,"""rgb_camera_link""","""obj-10""",,,0.167167031619,-0.0533674963725,0.884815249721,,-0.624531846042,0.726941215573,-0.222126393829,-0.179377555859
1.61642732354225E+018,,,0,,1616427323,471370543,"""rgb_camera_link""","""obj-12""",,,-0.0223139358354,0.118681959394,0.772885607114,,-0.595000827967,0.754828802405,-0.192465712093,-0.197900084505
1.61642732357719E+018,,,0,,1616427323,504714126,"""rgb_camera_link""","""obj-10""",,,0.167195363366,-0.0533745806346,0.884835018099,,-0.624470987098,0.727377851156,-0.220348983028,-0.180010481917
1.6164273235772E+018,,,0,,1616427323,504714126,"""rgb_camera_link""","""obj-4""",,,-0.0984225902531,-0.184023005926,0.968173302558,,-0.646176016892,0.709622522864,-0.214871565727,-0.180894003438
1.6164273235772E+018,,,0,,1616427323,504714126,"""rgb_camera_link""","""obj-3""",,,-0.0549439406067,-0.0198842797264,0.867834291886,,-0.609114357747,0.744498946631,-0.217393665679,-0.165653287845
1.61642732357721E+018,,,0,,1616427323,504714126,"""rgb_camera_link""","""obj-12""",,,-0.0223428087176,0.118684871097,0.773124609183,,-0.594982840911,0.755178250587,-0.192149012297,-0.196926346471
1.61642732360964E+018,,,0,,1616427323,538058092,"""rgb_camera_link""","""obj-4""",,,-0.098377962935,-0.183964251506,0.96781231822,,-0.646056751949,0.709676432517,-0.214765810995,-0.181233773948
1.61642732360965E+018,,,0,,1616427323,538058092,"""rgb_camera_link""","""obj-3""",,,-0.0549383819434,-0.0199212490143,0.867496009235,,-0.608366262821,0.744873282716,-0.217593641219,-0.166455069788
1.61642732360966E+018,,,0,,1616427323,538058092,"""rgb_camera_link""","""obj-10""",,,0.167014404441,-0.0533228336653,0.883796018701,,-0.624545978977,0.72676736187,-0.22231148459,-0.179803019116
1.61642732360966E+018,,,0,,1616427323,538058092,"""rgb_camera_link""","""obj-12""",,,-0.0223161238866,0.118665255949,0.773036328566,,-0.595151773533,0.755085671762,-0.191915761717,-0.196998312592
1.61642732364393E+018,,,0,,1616427323,571410531,"""rgb_camera_link""","""obj-4""",,,-0.0983156815319,-0.183931343739,0.967617953687,,-0.645547645739,0.709965900065,-0.215998183925,-0.180447893774
1.61642732364395E+018,,,0,,1616427323,571410531,"""rgb_camera_link""","""obj-3""",,,-0.0549170005117,-0.0199125590368,0.86751383442,,-0.608299237566,0.744920938375,-0.217981848077,-0.165978152344
1.61642732364395E+018,,,0,,1616427323,571410531,"""rgb_camera_link""","""obj-10""",,,0.16718872953,-0.053359323014,0.884736211941,,-0.624445135636,0.727079287559,-0.221739661746,-0.179598175358
1.61642732364396E+018,,,0,,1616427323,571410531,"""rgb_camera_link""","""obj-12""",,,-0.0223274097898,0.11866166447,0.773037990807,,-0.59491722457,0.755216807975,-0.191511302861,-0.197596785749
1.61642732368664E+018,,,0,,1616427323,604760229,"""rgb_camera_link""","""obj-3""",,,-0.0548929472085,-0.0199054964656,0.867248627154,,-0.60826970887,0.744741158476,-0.219284495467,-0.16517529534
1.61642732368665E+018,,,0,,1616427323,604760229,"""rgb_camera_link""","""obj-4""",,,-0.098388575213,-0.184006732708,0.967951109406,,-0.646044383909,0.709855819145,-0.214376992372,-0.181035563324
1.61642732368669E+018,,,0,,1616427323,604760229,"""rgb_camera_link""","""obj-10""",,,0.167280520385,-0.053384268435,0.885242591766,,-0.624703153083,0.727094157014,-0.220680684675,-0.179944693658
1.61642732368669E+018,,,0,,1616427323,604760229,"""rgb_camera_link""","""obj-12""",,,-0.0223256692752,0.118704559976,0.773183517181,,-0.595383572496,0.7549625659,-0.191983737676,-0.196703254064
1.61642732371992E+018,,,0,,1616427323,638103445,"""rgb_camera_link""","""obj-10""",,,0.167061091959,-0.0533151270574,0.88419521654,,-0.624089359802,0.727180143449,-0.222855345341,-0.179044701146
1.61642732371997E+018,,,0,,1616427323,638103445,"""rgb_camera_link""","""obj-3""",,,-0.0549207911264,-0.0199230335056,0.867484700418,,-0.607923511443,0.744904130752,-0.218379782867,-0.166904495623
1.61642732371997E+018,,,0,,1616427323,638103445,"""rgb_camera_link""","""obj-4""",,,-0.0983374722336,-0.183898251908,0.967508694015,,-0.64569093165,0.709938275342,-0.215776392152,-0.180309219341
1.61642732371997E+018,,,0,,1616427323,638103445,"""rgb_camera_link""","""obj-12""",,,-0.0223418752078,0.118722570083,0.773330737344,,-0.595363955128,0.755164677645,-0.191584922854,-0.196375375
1.61642732375164E+018,,,0,,1616427323,671441611,"""rgb_camera_link""","""obj-10""",,,0.167029098704,-0.0533036127692,0.884011546198,,-0.624204007951,0.727022356613,-0.222735739184,-0.179434221745
1.61642732375165E+018,,,0,,1616427323,671441611,"""rgb_camera_link""","""obj-3""",,,-0.0549049919224,-0.0198895472099,0.867406067753,,-0.608506666792,0.744837490078,-0.217724891923,-0.165929567233
1.61642732375166E+018,,,0,,1616427323,671441611,"""rgb_camera_link""","""obj-4""",,,-0.0983424869792,-0.183973174612,0.967795200029,,-0.645942160706,0.709749817312,-0.21576431675,-0.180165705572
1.61642732375166E+018,,,0,,1616427323,671441611,"""rgb_camera_link""","""obj-12""",,,-0.0223034514678,0.118629147913,0.772582159056,,-0.594856266949,0.755071197809,-0.191426665104,-0.198417085448
1.61642732378165E+018,,,0,,1616427323,704795342,"""rgb_camera_link""","""obj-3""",,,-0.0549480666992,-0.0199114216927,0.867613987106,,-0.608339330591,0.744963249528,-0.217227048118,-0.166629605038
1.61642732378166E+018,,,0,,1616427323,704795342,"""rgb_camera_link""","""obj-10""",,,0.167141897817,-0.0533686967608,0.88466634537,,-0.624690877436,0.726818914075,-0.221860346351,-0.179648435864
1.61642732378167E+018,,,0,,1616427323,704795342,"""rgb_camera_link""","""obj-4""",,,-0.0983104337309,-0.183884916211,0.967248325729,,-0.646083721241,0.709514234949,-0.215733211672,-0.18062269219
1.61642732378168E+018,,,0,,1616427323,704795342,"""rgb_camera_link""","""obj-12""",,,-0.0223226400995,0.11868083564,0.77301196418,,-0.595160294223,0.755017764067,-0.191863367489,-0.197283674794
1.61642732381563E+018,,,0,,1616427323,738142637,"""rgb_camera_link""","""obj-3""",,,-0.0549252625255,-0.0199343873567,0.867585923515,,-0.608705316539,0.744574977502,-0.218799417611,-0.164962890822
1.61642732381564E+018,,,0,,1616427323,738142637,"""rgb_camera_link""","""obj-4""",,,-0.0983817366143,-0.183988483979,0.96785198865,,-0.646420813723,0.709412985521,-0.214675997393,-0.181073365526
1.61642732381564E+018,,,0,,1616427323,738142637,"""rgb_camera_link""","""obj-12""",,,-0.0223521447716,0.118731756631,0.773346870525,,-0.595211804493,0.755106777632,-0.191375586539,-0.197261367336
1.61642732381565E+018,,,0,,1616427323,738142637,"""rgb_camera_link""","""obj-10""",,,0.167096029125,-0.0533383692512,0.884242889614,,-0.624065843538,0.727246083166,-0.22270581193,-0.179044907163
1.61642732384655E+018,,,0,,1616427323,771488360,"""rgb_camera_link""","""obj-3""",,,-0.0549581698643,-0.0199490205557,0.868160446846,,-0.608390733633,0.745127331255,-0.217056379634,-0.165929212336
1.61642732384656E+018,,,0,,1616427323,771488360,"""rgb_camera_link""","""obj-10""",,,0.167035085851,-0.053316512575,0.884004439323,,-0.624230979442,0.727023032372,-0.222672177728,-0.179416543193
1.61642732384657E+018,,,0,,1616427323,771488360,"""rgb_camera_link""","""obj-4""",,,-0.0983676074889,-0.183963448794,0.967788768936,,-0.645813587638,0.709807243942,-0.215316414991,-0.180934595656
1.61642732384658E+018,,,0,,1616427323,771488360,"""rgb_camera_link""","""obj-12""",,,-0.0223166819139,0.118651459608,0.772953803074,,-0.595114197804,0.75508475327,-0.190981111747,-0.198021013804
1.61642732387807E+018,,,0,,1616427323,804863637,"""rgb_camera_link""","""obj-3""",,,-0.0550072493758,-0.0199839225117,0.868380934172,,-0.608531365441,0.74484490484,-0.216530249044,-0.167362768431
1.61642732387808E+018,,,0,,1616427323,804863637,"""rgb_camera_link""","""obj-10""",,,0.166892725542,-0.0532884554181,0.8833919275,,-0.624177031369,0.72686091663,-0.223902971129,-0.178728008178
1.61642732387809E+018,,,0,,1616427323,804863637,"""rgb_camera_link""","""obj-4""",,,-0.0983602910298,-0.183969919736,0.9677168713,,-0.645948492237,0.709573418903,-0.215709112355,-0.180902425108
1.61642732387811E+018,,,0,,1616427323,804863637,"""rgb_camera_link""","""obj-12""",,,-0.0223295853068,0.11871866751,0.773304059387,,-0.595475451259,0.754844649525,-0.191796944276,-0.197059570174
1.61642732392318E+018,,,0,,1616427323,838232516,"""rgb_camera_link""","""obj-4""",,,-0.0983116210251,-0.183883671287,0.967413250258,,-0.646104817895,0.709536293561,-0.215609698065,-0.18060805772
1.6164273239232E+018,,,0,,1616427323,838232516,"""rgb_camera_link""","""obj-10""",,,0.167146753495,-0.0533773585544,0.884636830757,,-0.624310172979,0.727215250397,-0.222000960085,-0.179193641703
1.61642732392321E+018,,,0,,1616427323,838232516,"""rgb_camera_link""","""obj-3""",,,-0.0549094613937,-0.0199388391474,0.867445319708,,-0.608767316319,0.744358938334,-0.219120272817,-0.165282883396
1.61642732392322E+018,,,0,,1616427323,838232516,"""rgb_camera_link""","""obj-12""",,,-0.0223402530807,0.118669763239,0.772977011798,,-0.594997253184,0.755397491227,-0.190992884852,-0.197166469989
1.61642732395647E+018,,,0,,1616427323,871587701,"""rgb_camera_link""","""obj-10""",,,0.167130573085,-0.0533328871731,0.884384543852,,-0.624518376232,0.726876372839,-0.222097752807,-0.179722354076
1.61642732395648E+018,,,0,,1616427323,871587701,"""rgb_camera_link""","""obj-3""",,,-0.0549272266472,-0.0199151565272,0.867212234964,,-0.608432902963,0.744652962858,-0.218315809399,-0.166251540939
1.61642732395648E+018,,,0,,1616427323,871587701,"""rgb_camera_link""","""obj-4""",,,-0.0983837712843,-0.183971241601,0.967805587224,,-0.645981275269,0.709742686999,-0.214778958134,-0.181227783181
1.61642732395649E+018,,,0,,1616427323,871587701,"""rgb_camera_link""","""obj-12""",,,-0.0223445825066,0.118708970391,0.773183613759,,-0.5951308694,0.755112259038,-0.191198564995,-0.197655845553
1.61642732398784E+018,,,0,,1616427323,904936039,"""rgb_camera_link""","""obj-3""",,,-0.0549816774867,-0.0199434982431,0.868186415271,,-0.608303080462,0.745158588338,-0.216129194356,-0.167314709074
1.61642732398789E+018,,,0,,1616427323,904936039,"""rgb_camera_link""","""obj-4""",,,-0.0983683354813,-0.183956407006,0.967862750738,,-0.646243241773,0.709554311657,-0.21538512984,-0.180309725513
1.61642732398789E+018,,,0,,1616427323,904936039,"""rgb_camera_link""","""obj-10""",,,0.16702336798,-0.0532969236296,0.883960847331,,-0.624364177041,0.726991479729,-0.223151341858,-0.178483168552
1.6164273239879E+018,,,0,,1616427323,904936039,"""rgb_camera_link""","""obj-12""",,,-0.022359897499,0.118730745435,0.773402737569,,-0.594990874881,0.755199819782,-0.191601224932,-0.19735263265
1.61642732401815E+018,,,0,,1616427323,938267768,"""rgb_camera_link""","""obj-3""",,,-0.0549024064801,-0.01989104943,0.867345425174,,-0.60891468963,0.744532430957,-0.217669281765,-0.165874783438
1.61642732401816E+018,,,0,,1616427323,938267768,"""rgb_camera_link""","""obj-10""",,,0.167235973479,-0.0533692095489,0.884932591876,,-0.624478617528,0.727108888824,-0.22154932358,-0.17959681864
1.61642732401817E+018,,,0,,1616427323,938267768,"""rgb_camera_link""","""obj-4""",,,-0.0982775758136,-0.183843939126,0.967147481238,,-0.64594035235,0.709662251922,-0.215463684352,-0.180875510029
1.61642732401818E+018,,,0,,1616427323,938267768,"""rgb_camera_link""","""obj-12""",,,-0.0223506366693,0.118706109683,0.773222466853,,-0.595248344292,0.755029684059,-0.192207964535,-0.196635915276
1.61642732404968E+018,,,0,,1616427323,971618282,"""rgb_camera_link""","""obj-10""",,,0.167218456489,-0.0533745672648,0.884852331997,,-0.624687626674,0.72695216489,-0.221339414419,-0.179763129329
1.61642732404969E+018,,,0,,1616427323,971618282,"""rgb_camera_link""","""obj-3""",,,-0.0549502289409,-0.0199026139332,0.867899669678,,-0.608947903301,0.744733092468,-0.216966871402,-0.165772279838
1.6164273240497E+018,,,0,,1616427323,971618282,"""rgb_camera_link""","""obj-4""",,,-0.0982863521629,-0.183847820879,0.967191230539,,-0.64561540809,0.709889393075,-0.216252448151,-0.180201756666
1.6164273240497E+018,,,0,,1616427323,971618282,"""rgb_camera_link""","""obj-12""",,,-0.022310462175,0.118696972446,0.773193566262,,-0.595119409949,0.754917552902,-0.192129713571,-0.197531135234
1.61642732407958E+018,,,0,,1616427324,4980449,"""rgb_camera_link""","""obj-10""",,,0.167013195505,-0.0532979948359,0.883815496919,,-0.624342448782,0.726969271217,-0.222687546568,-0.179227347129
1.61642732407959E+018,,,0,,1616427324,4980449,"""rgb_camera_link""","""obj-4""",,,-0.0983799897455,-0.18394476414,0.967691072712,,-0.646211337146,0.709729287973,-0.213867304925,-0.181537933838
1.6164273240796E+018,,,0,,1616427324,4980449,"""rgb_camera_link""","""obj-3""",,,-0.0549427460788,-0.0198773399738,0.867639556015,,-0.608435437239,0.745112366549,-0.217461248563,-0.165301195703
1.61642732407961E+018,,,0,,1616427324,4980449,"""rgb_camera_link""","""obj-12""",,,-0.022338172499,0.118681270338,0.77310081032,,-0.595290758353,0.754832547639,-0.192313355336,-0.197160623361
1.6164273241095E+018,,,0,,1616427324,38317584,"""rgb_camera_link""","""obj-3""",,,-0.054910666346,-0.01988815052,0.867340504265,,-0.608685161101,0.744503210845,-0.218790050641,-0.16537308559
1.61642732410951E+018,,,0,,1616427324,38317584,"""rgb_camera_link""","""obj-4""",,,-0.0984034628325,-0.184055364251,0.968303150994,,-0.645658833712,0.710088170728,-0.216469817837,-0.178997983809
1.61642732410955E+018,,,0,,1616427324,38317584,"""rgb_camera_link""","""obj-10""",,,0.167179222675,-0.0533708640738,0.884618964297,,-0.624647103149,0.726931058823,-0.221322745037,-0.180009651896
1.61642732410956E+018,,,0,,1616427324,38317584,"""rgb_camera_link""","""obj-12""",,,-0.0223257199231,0.118668601321,0.772847835481,,-0.594980205031,0.755239214149,-0.191255592108,-0.197569186666
1.61642732414246E+018,,,0,,1616427324,71647928,"""rgb_camera_link""","""obj-4""",,,-0.0983375461326,-0.183923080747,0.967451449319,,-0.645643730129,0.709945097494,-0.215559276143,-0.180710627128
1.61642732414247E+018,,,0,,1616427324,71647928,"""rgb_camera_link""","""obj-3""",,,-0.0548887213107,-0.0198933783,0.867413460177,,-0.608703207512,0.74478300899,-0.218249590096,-0.164759798216
1.61642732414248E+018,,,0,,1616427324,71647928,"""rgb_camera_link""","""obj-10""",,,0.167172173541,-0.0533505685638,0.884624728311,,-0.624998354482,0.726698467142,-0.221365895043,-0.179676195586
1.61642732414249E+018,,,0,,1616427324,71647928,"""rgb_camera_link""","""obj-12""",,,-0.0223448567577,0.118687768434,0.773042802222,,-0.595138101315,0.755118450871,-0.190829041849,-0.197967275844
1.61642732417395E+018,,,0,,1616427324,104987057,"""rgb_camera_link""","""obj-3""",,,-0.054919849608,-0.0199417268668,0.867214506906,,-0.607859138957,0.744840328888,-0.218921955908,-0.166713313417
1.61642732417396E+018,,,0,,1616427324,104987057,"""rgb_camera_link""","""obj-4""",,,-0.0983476956763,-0.183953220446,0.96773934484,,-0.645808890034,0.709851486646,-0.215021702474,-0.18112816436
1.616427324174E+018,,,0,,1616427324,104987057,"""rgb_camera_link""","""obj-10""",,,0.167017158769,-0.0533276980465,0.883918856457,,-0.623998468931,0.727198217108,-0.223016705586,-0.179087165471
1.61642732417401E+018,,,0,,1616427324,104987057,"""rgb_camera_link""","""obj-12""",,,-0.0223314851159,0.118717788145,0.773275963744,,-0.595216375028,0.755051657219,-0.192373884365,-0.196486005718
1.61642732421117E+018,,,0,,1616427324,138355696,"""rgb_camera_link""","""obj-4""",,,-0.0983375031927,-0.183921702564,0.967543404238,,-0.646106124728,0.709594646558,-0.215825502241,-0.180115701005
1.61642732421119E+018,,,0,,1616427324,138355696,"""rgb_camera_link""","""obj-3""",,,-0.0549944166418,-0.0199817325064,0.868207220079,,-0.608116356455,0.745045277938,-0.217176904037,-0.167141326987
1.61642732421119E+018,,,0,,1616427324,138355696,"""rgb_camera_link""","""obj-10""",,,0.167193547215,-0.0533746052535,0.884716645732,,-0.624352804216,0.727090214825,-0.22180673498,-0.179792012313
1.6164273242112E+018,,,0,,1616427324,138355696,"""rgb_camera_link""","""obj-12""",,,-0.0223505384875,0.118701728983,0.773117204204,,-0.595038514068,0.755269961885,-0.190508877822,-0.197997017456
1.61642732424271E+018,,,0,,1616427324,171695427,"""rgb_camera_link""","""obj-3""",,,-0.0549210991295,-0.0198984776415,0.867574141454,,-0.608434696075,0.744939209149,-0.217658231283,-0.165824273373
1.61642732424273E+018,,,0,,1616427324,171695427,"""rgb_camera_link""","""obj-10""",,,0.167081789247,-0.0533030429143,0.884177043062,,-0.624434080821,0.727113447363,-0.222233125269,-0.178886979419
1.61642732424274E+018,,,0,,1616427324,171695427,"""rgb_camera_link""","""obj-4""",,,-0.0982831546412,-0.183811767792,0.96702167758,,-0.646028004872,0.709590470014,-0.215188357898,-0.181171610389
1.61642732424274E+018,,,0,,1616427324,171695427,"""rgb_camera_link""","""obj-12""",,,-0.0223167248179,0.118679900478,0.772856064004,,-0.595196642686,0.754692187099,-0.192372142225,-0.197923263318
1.61642732427776E+018,,,0,,1616427324,205035605,"""rgb_camera_link""","""obj-4""",,,-0.0983626317672,-0.183955925575,0.967777027998,,-0.645859752357,0.709837861091,-0.215752675045,-0.180128216721
1.61642732427777E+018,,,0,,1616427324,205035605,"""rgb_camera_link""","""obj-3""",,,-0.0549140183031,-0.0199247682551,0.867765954364,,-0.60864585718,0.744763126165,-0.21755106674,-0.165980841674
1.61642732427779E+018,,,0,,1616427324,205035605,"""rgb_camera_link""","""obj-10""",,,0.167240784488,-0.0533932264806,0.88510742612,,-0.624667434597,0.727069477646,-0.221028405755,-0.179741521855
1.6164273242778E+018,,,0,,1616427324,205035605,"""rgb_camera_link""","""obj-12""",,,-0.0223303571996,0.118700859298,0.773051071165,,-0.595216355878,0.75479035266,-0.192918204898,-0.196955780432
1.61642732430905E+018,,,0,,1616427324,238383833,"""rgb_camera_link""","""obj-10""",,,0.167202368942,-0.0533501711068,0.884830015789,,-0.624602793865,0.727045474765,-0.222075967882,-0.178769382192
1.61642732430906E+018,,,0,,1616427324,238383833,"""rgb_camera_link""","""obj-3""",,,-0.0549151901819,-0.0199301136248,0.867308620684,,-0.607751647456,0.745131265961,-0.21712173389,-0.168153156895
1.61642732430907E+018,,,0,,1616427324,238383833,"""rgb_camera_link""","""obj-4""",,,-0.0983860400468,-0.184019672178,0.968020368835,,-0.646108317941,0.709768432455,-0.215181426806,-0.180193693941
1.61642732430908E+018,,,0,,1616427324,238383833,"""rgb_camera_link""","""obj-12""",,,-0.0223277457726,0.118735447201,0.773236882641,,-0.595209477372,0.754896960487,-0.192657973303,-0.196822667437
1.61642732434415E+018,,,0,,1616427324,271712240,"""rgb_camera_link""","""obj-10""",,,0.167181914802,-0.0533688986553,0.884668297897,,-0.624710090907,0.726978325248,-0.221158097677,-0.179802427041
1.61642732434416E+018,,,0,,1616427324,271712240,"""rgb_camera_link""","""obj-4""",,,-0.0982824260067,-0.183803417596,0.967032290581,,-0.646164942786,0.709496737147,-0.215032128542,-0.181235841892
1.61642732434417E+018,,,0,,1616427324,271712240,"""rgb_camera_link""","""obj-3""",,,-0.0548862360502,-0.0199312094609,0.867166185843,,-0.608297667011,0.744572281616,-0.219563137466,-0.165463272133
1.61642732434418E+018,,,0,,1616427324,271712240,"""rgb_camera_link""","""obj-12""",,,-0.0223464676921,0.118658388504,0.772937258261,,-0.595019000294,0.755072264044,-0.190895949451,-0.198436392439
1.61642732437661E+018,,,0,,1616427324,305062471,"""rgb_camera_link""","""obj-10""",,,0.167160412671,-0.0533972099832,0.884839598924,,-0.624292589204,0.727189795331,-0.222454372537,-0.178795460711
1.61642732437662E+018,,,0,,1616427324,305062471,"""rgb_camera_link""","""obj-3""",,,-0.0549383619346,-0.0199189544318,0.867885533783,,-0.60899569942,0.744331043705,-0.218571060848,-0.165294364168
1.61642732437663E+018,,,0,,1616427324,305062471,"""rgb_camera_link""","""obj-4""",,,-0.0983812130402,-0.184018548172,0.968047332747,,-0.646029876603,0.709900509772,-0.214396650662,-0.18088875296
1.61642732437665E+018,,,0,,1616427324,305062471,"""rgb_camera_link""","""obj-12""",,,-0.022331039818,0.118726821961,0.773227958184,,-0.595067253138,0.755189789523,-0.191443606536,-0.197313688223
1.61642732441513E+018,,,0,,1616427324,338381406,"""rgb_camera_link""","""obj-10""",,,0.166972356311,-0.0533082762693,0.883729531263,,-0.624544252921,0.726769134703,-0.222856029639,-0.17912646661
1.61642732441514E+018,,,0,,1616427324,338381406,"""rgb_camera_link""","""obj-4""",,,-0.0983328831671,-0.183903171023,0.967460968012,,-0.64622713537,0.709527612839,-0.214814756257,-0.181150977433
1.61642732441515E+018,,,0,,1616427324,338381406,"""rgb_camera_link""","""obj-3""",,,-0.0549284082897,-0.0198991311921,0.867462264997,,-0.608703960028,0.74474101071,-0.216775906673,-0.166878765273
1.61642732441516E+018,,,0,,1616427324,338381406,"""rgb_camera_link""","""obj-12""",,,-0.0223243140421,0.11868163639,0.773155880721,,-0.595228072986,0.75498308037,-0.192321806887,-0.196764864956
1.6164273244488E+018,,,0,,1616427324,371732563,"""rgb_camera_link""","""obj-3""",,,-0.0548986285246,-0.019890650075,0.867441139763,,-0.608448570903,0.744811046046,-0.218995211239,-0.164584141725
1.61642732444882E+018,,,0,,1616427324,371732563,"""rgb_camera_link""","""obj-4""",,,-0.0983615642755,-0.183963728129,0.967815618496,,-0.64589637673,0.709846146585,-0.215589930225,-0.180159098276
1.61642732444882E+018,,,0,,1616427324,371732563,"""rgb_camera_link""","""obj-10""",,,0.167063597978,-0.0533306435542,0.884146856328,,-0.624207468811,0.727012484323,-0.222971232115,-0.179169509594
1.61642732444883E+018,,,0,,1616427324,371732563,"""rgb_camera_link""","""obj-12""",,,-0.0223328651148,0.118672156071,0.772887293359,,-0.595016151719,0.754972715456,-0.193404357711,-0.19638414531
1.61642732448118E+018,,,0,,1616427324,405064038,"""rgb_camera_link""","""obj-3""",,,-0.0549112691266,-0.0199023952087,0.867445321714,,-0.60862035797,0.744691380949,-0.218175813486,-0.165575727127
1.61642732448119E+018,,,0,,1616427324,405064038,"""rgb_camera_link""","""obj-4""",,,-0.0983360154932,-0.18390375823,0.967459296083,,-0.646029033084,0.70955753296,-0.21491729202,-0.181618152793
1.6164273244812E+018,,,0,,1616427324,405064038,"""rgb_camera_link""","""obj-10""",,,0.167143913627,-0.053341977514,0.884682144542,,-0.624613875342,0.72689141917,-0.222140809919,-0.179275854581
1.6164273244812E+018,,,0,,1616427324,405064038,"""rgb_camera_link""","""obj-12""",,,-0.0223343405992,0.11872219404,0.773211502542,,-0.595546924774,0.754989476547,-0.192025296041,-0.196063857903
1.61642732451789E+018,,,0,,1616427324,438413435,"""rgb_camera_link""","""obj-3""",,,-0.0549142491084,-0.019919849169,0.86765305037,,-0.608715703163,0.744555249875,-0.218550248724,-0.165343464912
1.61642732451792E+018,,,0,,1616427324,438413435,"""rgb_camera_link""","""obj-4""",,,-0.0983858871085,-0.183992224984,0.967933083754,,-0.646028375702,0.709783612494,-0.215276774897,-0.180306603906
1.61642732451793E+018,,,0,,1616427324,438413435,"""rgb_camera_link""","""obj-10""",,,0.166989578789,-0.0533035677628,0.88375093249,,-0.624770659975,0.726531561685,-0.223345104633,-0.178691008577
1.61642732451793E+018,,,0,,1616427324,438413435,"""rgb_camera_link""","""obj-12""",,,-0.0223495567873,0.118734075569,0.773396486983,,-0.595503383114,0.755141144216,-0.191207985758,-0.19641048647
1.61642732455083E+018,,,0,,1616427324,471757726,"""rgb_camera_link""","""obj-10""",,,0.16711819517,-0.0533250383328,0.884096613789,,-0.624271485234,0.72712398066,-0.221852249604,-0.179881652255
1.61642732455084E+018,,,0,,1616427324,471757726,"""rgb_camera_link""","""obj-3""",,,-0.0549314851148,-0.0199313684847,0.867454854445,,-0.608756825592,0.74451464411,-0.218549923879,-0.165375339074
1.61642732455084E+018,,,0,,1616427324,471757726,"""rgb_camera_link""","""obj-4""",,,-0.0982938330522,-0.183880437933,0.967270536991,,-0.645753985744,0.709837298994,-0.215387144202,-0.180945231949
1.61642732455085E+018,,,0,,1616427324,471757726,"""rgb_camera_link""","""obj-12""",,,-0.0223308505224,0.118636733765,0.772808861187,,-0.59502848761,0.755250074559,-0.190466945053,-0.19814329828
1.61642732458424E+018,,,0,,1616427324,505097798,"""rgb_camera_link""","""obj-4""",,,-0.0983444499317,-0.183964503311,0.96779429754,,-0.646166331188,0.709699250476,-0.215244507485,-0.180182819129
1.61642732458425E+018,,,0,,1616427324,505097798,"""rgb_camera_link""","""obj-3""",,,-0.0548960197393,-0.0198942534424,0.867225608469,,-0.608652321737,0.744602015645,-0.218881203216,-0.164927888545
1.61642732458427E+018,,,0,,1616427324,505097798,"""rgb_camera_link""","""obj-10""",,,0.167170869341,-0.0533437602313,0.884703891087,,-0.624445689864,0.727137640561,-0.222074039457,-0.178945670776
1.61642732458427E+018,,,0,,1616427324,505097798,"""rgb_camera_link""","""obj-12""",,,-0.0223330175415,0.118672458117,0.773008426555,,-0.595418412632,0.754975419598,-0.192855184524,-0.195693401788
1.6164273246166E+018,,,0,,1616427324,538449948,"""rgb_camera_link""","""obj-4""",,,-0.0983149551186,-0.183898301323,0.967356544935,,-0.646101290947,0.709619483439,-0.214512449071,-0.181597686536
1.61642732461661E+018,,,0,,1616427324,538449948,"""rgb_camera_link""","""obj-3""",,,-0.0549656778927,-0.0199033077715,0.868119751539,,-0.608546672758,0.745094486703,-0.217727762732,-0.164620090802
1.61642732461664E+018,,,0,,1616427324,538449948,"""rgb_camera_link""","""obj-10""",,,0.166992678312,-0.0532867608683,0.883625203494,,-0.624317987211,0.72696560841,-0.222273433165,-0.179840417989
1.61642732461665E+018,,,0,,1616427324,538449948,"""rgb_camera_link""","""obj-12""",,,-0.0223328390954,0.118689533744,0.773126113338,,-0.595137248107,0.754887536313,-0.192399616951,-0.197329295423
1.61642732464857E+018,,,0,,1616427324,571810323,"""rgb_camera_link""","""obj-4""",,,-0.0982831283281,-0.183858008227,0.967282127103,,-0.64602055391,0.709639290605,-0.215618469499,-0.180494312285
1.61642732464859E+018,,,0,,1616427324,571810323,"""rgb_camera_link""","""obj-3""",,,-0.0549110702462,-0.019903371166,0.867461603127,,-0.60885302241,0.744490921163,-0.218109830647,-0.165708681677
1.61642732464861E+018,,,0,,1616427324,571810323,"""rgb_camera_link""","""obj-10""",,,0.167035686643,-0.0533458789968,0.884086422833,,-0.624047971161,0.727208986702,-0.222961405752,-0.17893974096
1.61642732464862E+018,,,0,,1616427324,571810323,"""rgb_camera_link""","""obj-12""",,,-0.0223406898929,0.1186813618,0.772989490252,,-0.594763986988,0.755151058684,-0.19029928777,-0.199471450147
1.61642732467974E+018,,,0,,1616427324,605148099,"""rgb_camera_link""","""obj-4""",,,-0.0983579292995,-0.184010817981,0.968013172503,,-0.646146994837,0.709837010484,-0.214176671689,-0.180980200338
1.61642732467976E+018,,,0,,1616427324,605148099,"""rgb_camera_link""","""obj-3""",,,-0.0549337141185,-0.0198972630306,0.867694843185,,-0.60860952439,0.74490353925,-0.218758343842,-0.163883955999
1.61642732467977E+018,,,0,,1616427324,605148099,"""rgb_camera_link""","""obj-10""",,,0.167228377362,-0.0533790283431,0.884981547901,,-0.624689401851,0.727041880755,-0.22143270594,-0.179278586517
1.61642732467979E+018,,,0,,1616427324,605148099,"""rgb_camera_link""","""obj-12""",,,-0.0223463556945,0.118744882137,0.773371452247,,-0.595443507541,0.755155514496,-0.191345139011,-0.196403197608
1.61642732471297E+018,,,0,,1616427324,638515182,"""rgb_camera_link""","""obj-10""",,,0.167171304385,-0.0533571250773,0.884791401646,,-0.624855355502,0.726943101724,-0.221165743159,-0.179430280638
1.61642732471298E+018,,,0,,1616427324,638515182,"""rgb_camera_link""","""obj-3""",,,-0.0549570627044,-0.0199215376105,0.867807105331,,-0.608787466246,0.744785726673,-0.217011176475,-0.166066828632
1.61642732471298E+018,,,0,,1616427324,638515182,"""rgb_camera_link""","""obj-4""",,,-0.0983456722437,-0.183919089976,0.967521448856,,-0.646015003861,0.70956317268,-0.216002964353,-0.180353647465
1.61642732471302E+018,,,0,,1616427324,638515182,"""rgb_camera_link""","""obj-12""",,,-0.0223296363855,0.118682985318,0.773157719271,,-0.59526271722,0.754809503085,-0.192501856637,-0.197149554228
1.61642732474497E+018,,,0,,1616427324,671851597,"""rgb_camera_link""","""obj-10""",,,0.167042425434,-0.0532948084524,0.883865508895,,-0.624256068912,0.726891049912,-0.223390823365,-0.178970114879
1.61642732474498E+018,,,0,,1616427324,671851597,"""rgb_camera_link""","""obj-3""",,,-0.0549594505674,-0.0199232832672,0.868197251938,,-0.608648052649,0.744924144317,-0.217617863428,-0.16516062708
1.61642732474499E+018,,,0,,1616427324,671851597,"""rgb_camera_link""","""obj-4""",,,-0.0983372117103,-0.18392902801,0.967605528787,,-0.645622222437,0.710024102152,-0.215464550701,-0.180589998753
1.61642732474499E+018,,,0,,1616427324,671851597,"""rgb_camera_link""","""obj-12""",,,-0.02233097453,0.118664548576,0.7728072977,,-0.595084506777,0.755058392286,-0.191188264685,-0.198010862022
1.61642732477926E+018,,,0,,1616427324,705202894,"""rgb_camera_link""","""obj-10""",,,0.167017593612,-0.0533123157478,0.883841382434,,-0.624211207382,0.726886687339,-0.223354030711,-0.179190092676
1.61642732477927E+018,,,0,,1616427324,705202894,"""rgb_camera_link""","""obj-3""",,,-0.0549150257013,-0.0199066144366,0.86740623645,,-0.608614973272,0.744664264344,-0.218604074633,-0.165152070138
1.61642732477928E+018,,,0,,1616427324,705202894,"""rgb_camera_link""","""obj-4""",,,-0.0983754630082,-0.183955328599,0.967767829222,,-0.645983419783,0.709699004832,-0.215712494021,-0.180279959587
1.61642732477928E+018,,,0,,1616427324,705202894,"""rgb_camera_link""","""obj-12""",,,-0.0223355040496,0.118673309976,0.772871106534,,-0.594831236331,0.755040728278,-0.192370024403,-0.197694392024
1.61642732481001E+018,,,0,,1616427324,738536035,"""rgb_camera_link""","""obj-10""",,,0.166987228544,-0.0533332894272,0.883782491374,,-0.624245514,0.726868780332,-0.223330254734,-0.179172854389
1.61642732481002E+018,,,0,,1616427324,738536035,"""rgb_camera_link""","""obj-3""",,,-0.054881597731,-0.0199235369794,0.866999108846,,-0.608731906795,0.744492437064,-0.21890255495,-0.165100418654
1.61642732481003E+018,,,0,,1616427324,738536035,"""rgb_camera_link""","""obj-4""",,,-0.0983071370996,-0.183882281665,0.967304024228,,-0.645705059896,0.709927371562,-0.215157087388,-0.181040134994
1.61642732481003E+018,,,0,,1616427324,738536035,"""rgb_camera_link""","""obj-12""",,,-0.0223339160883,0.118686109953,0.773073460051,,-0.595162895831,0.754870698428,-0.193400162679,-0.196335766369
1.61642732484426E+018,,,0,,1616427324,771906999,"""rgb_camera_link""","""obj-10""",,,0.167124774934,-0.053347726463,0.884602756104,,-0.624799173387,0.726981403795,-0.221370139108,-0.179218562046
1.61642732484427E+018,,,0,,1616427324,771906999,"""rgb_camera_link""","""obj-3""",,,-0.0549264881174,-0.0199529643048,0.867521512973,,-0.608011188076,0.744886391524,-0.217944521391,-0.167232904931
1.61642732484427E+018,,,0,,1616427324,771906999,"""rgb_camera_link""","""obj-4""",,,-0.0983591249116,-0.184001260119,0.967961736534,,-0.646074062006,0.709645543638,-0.214957720757,-0.181065422115
1.61642732484428E+018,,,0,,1616427324,771906999,"""rgb_camera_link""","""obj-12""",,,-0.0223282569934,0.118699731777,0.77302250711,,-0.595382051936,0.755028909916,-0.192300831,-0.196142672105
1.61642732487996E+018,,,0,,1616427324,805241988,"""rgb_camera_link""","""obj-10""",,,0.167131173912,-0.0533580358669,0.884378557801,,-0.624693422808,0.726922480311,-0.221262852386,-0.179957176219
1.61642732487998E+018,,,0,,1616427324,805241988,"""rgb_camera_link""","""obj-3""",,,-0.0548811232793,-0.0198862233769,0.867256253232,,-0.608193168846,0.744970368388,-0.218684427417,-0.16521906911
1.61642732487999E+018,,,0,,1616427324,805241988,"""rgb_camera_link""","""obj-4""",,,-0.0983385881069,-0.183942979912,0.967618121857,,-0.645923068933,0.709836385592,-0.214393867087,-0.181524005205
1.61642732488E+018,,,0,,1616427324,805241988,"""rgb_camera_link""","""obj-12""",,,-0.0223124437119,0.118657452446,0.772878278958,,-0.594984387252,0.755112213819,-0.191389811502,-0.197911756907
1.6164273249124E+018,,,0,,1616427324,838588515,"""rgb_camera_link""","""obj-10""",,,0.167087638171,-0.0533244391178,0.883984346664,,-0.624472035714,0.726976079594,-0.221937880645,-0.179677581918
1.61642732491241E+018,,,0,,1616427324,838588515,"""rgb_camera_link""","""obj-4""",,,-0.0984199862682,-0.184054461032,0.968285766638,,-0.645759708232,0.71009027446,-0.215054334846,-0.180327020729
1.61642732491241E+018,,,0,,1616427324,838588515,"""rgb_camera_link""","""obj-3""",,,-0.0549098290375,-0.0198799622122,0.867472666815,,-0.608661268574,0.744894595598,-0.218245916182,-0.164414785399
1.61642732491242E+018,,,0,,1616427324,838588515,"""rgb_camera_link""","""obj-12""",,,-0.0223114748957,0.118670420758,0.772918397742,,-0.595217767724,0.754934668727,-0.191717177756,-0.19757018675
1.61642732494659E+018,,,0,,1616427324,871918979,"""rgb_camera_link""","""obj-10""",,,0.16718567534,-0.0533800744732,0.884853583523,,-0.624630561916,0.727034037589,-0.221434700991,-0.179512792038
1.6164273249466E+018,,,0,,1616427324,871918979,"""rgb_camera_link""","""obj-4""",,,-0.0982769029651,-0.183843409087,0.966970898472,,-0.645458567244,0.710238233532,-0.214799340503,-0.181124633663
1.61642732494661E+018,,,0,,1616427324,871918979,"""rgb_camera_link""","""obj-3""",,,-0.0549309234308,-0.0199129687352,0.867726105578,,-0.608293309709,0.744949477946,-0.218161644425,-0.165635206323
1.61642732494662E+018,,,0,,1616427324,871918979,"""rgb_camera_link""","""obj-12""",,,-0.0223246484405,0.118669670967,0.772924936107,,-0.594870047402,0.754941042984,-0.192802873598,-0.197536579536
1.61642732497823E+018,,,0,,1616427324,905266771,"""rgb_camera_link""","""obj-10""",,,0.167214549085,-0.0533583244261,0.884960239544,,-0.624477708256,0.727226911218,-0.221499410609,-0.179183209569
1.61642732497824E+018,,,0,,1616427324,905266771,"""rgb_camera_link""","""obj-3""",,,-0.0548831097767,-0.0198958351256,0.867133916735,,-0.608822415116,0.744570039934,-0.218348325243,-0.165150632297
1.61642732497826E+018,,,0,,1616427324,905266771,"""rgb_camera_link""","""obj-4""",,,-0.0983190586402,-0.183914503256,0.967505937557,,-0.646008709632,0.70949641845,-0.215942780659,-0.180710527549
1.61642732497827E+018,,,0,,1616427324,905266771,"""rgb_camera_link""","""obj-12""",,,-0.0223362847155,0.11867907916,0.773034636663,,-0.595255296861,0.755106426609,-0.191714492111,-0.196801853567
1.61642732501116E+018,,,0,,1616427324,938598581,"""rgb_camera_link""","""obj-10""",,,0.167139841858,-0.0533381939767,0.884610713518,,-0.624305505101,0.72726091271,-0.221834074434,-0.179231260011
1.61642732501117E+018,,,0,,1616427324,938598581,"""rgb_camera_link""","""obj-4""",,,-0.0983363725085,-0.183980676993,0.967806663599,,-0.646010674832,0.709723967989,-0.215087950542,-0.180829396938
