rosbagTimestamp,transforms,-,header,seq,secs,nsecs,frame_id,child_frame_id,transform,translation,x,y,z,rotation,x,y,z,w
1.61642674820626E+018,,,0,,1616426748,117829744,"""rgb_camera_link""","""obj-7""",,,0.0462523474101,-0.231634906103,0.998096241342,,-0.453304417011,0.848165266968,-0.243576031568,-0.12570402648
1.61642674820628E+018,,,0,,1616426748,117829744,"""rgb_camera_link""","""obj-3""",,,-0.234389368674,-0.045923663091,0.873077306281,,0.088871290216,0.953732731618,-0.283574333355,0.0456220108872
1.61642674820629E+018,,,0,,1616426748,117829744,"""rgb_camera_link""","""obj-4""",,,-0.178895032946,-0.214355316456,0.987091105762,,0.0169917458526,0.95840525201,-0.283547132605,0.0277790763653
1.61642674820629E+018,,,0,,1616426748,117829744,"""rgb_camera_link""","""obj-10""",,,0.139404267202,-0.000150817280775,0.852351799251,,-0.258325767332,0.921741134598,-0.280782010772,-0.0694445184906
1.61642674820629E+018,,,0,,1616426748,117829744,"""rgb_camera_link""","""obj-12""",,,-0.000337422543807,0.186986423025,0.731550335106,,-0.363351057007,0.901865744171,-0.199386268005,-0.121898748942
1.61642674824117E+018,,,0,,1616426748,151196444,"""rgb_camera_link""","""obj-10""",,,0.139395323965,-0.000157164625751,0.85242799573,,-0.258046452574,0.921840754521,-0.281040712373,-0.0681011718487
1.61642674824119E+018,,,0,,1616426748,151196444,"""rgb_camera_link""","""obj-7""",,,0.0462804832752,-0.231647939825,0.998367810383,,-0.453285272955,0.848118617994,-0.24353849371,-0.126159713124
1.61642674824119E+018,,,0,,1616426748,151196444,"""rgb_camera_link""","""obj-4""",,,-0.17870829242,-0.214104051234,0.986035848791,,0.0173162861499,0.95875336041,-0.282729191999,0.0235869482675
1.6164267482412E+018,,,0,,1616426748,151196444,"""rgb_camera_link""","""obj-3""",,,-0.234323527321,-0.045871408292,0.872916090587,,0.0890768635503,0.95348285526,-0.284357812983,0.0455674368467
1.61642674824121E+018,,,0,,1616426748,151196444,"""rgb_camera_link""","""obj-12""",,,-0.000332401419461,0.187126059035,0.732026392482,,-0.363481494309,0.901985949481,-0.19877314045,-0.121621498386
1.61642674827638E+018,,,0,,1616426748,184542666,"""rgb_camera_link""","""obj-4""",,,-0.178699530474,-0.21417101677,0.986169268576,,0.016445222366,0.958479654214,-0.283445597587,0.0265499590716
1.61642674827639E+018,,,0,,1616426748,184542666,"""rgb_camera_link""","""obj-10""",,,0.139292887675,-0.000167119551438,0.851965911332,,-0.257943824687,0.92153798909,-0.281697975586,-0.0698496136077
1.61642674827639E+018,,,0,,1616426748,184542666,"""rgb_camera_link""","""obj-7""",,,0.0462828689267,-0.231875284914,0.999371413341,,-0.452984818879,0.848509556289,-0.243210546748,-0.125239437486
1.6164267482764E+018,,,0,,1616426748,184542666,"""rgb_camera_link""","""obj-3""",,,-0.234372485711,-0.045889856611,0.873094788276,,0.0885722871617,0.953385199127,-0.284885873281,0.0452951568812
1.61642674827641E+018,,,0,,1616426748,184542666,"""rgb_camera_link""","""obj-12""",,,-0.000313868323468,0.187089153063,0.731945456246,,-0.363531566673,0.902106148933,-0.199270119868,-0.119752726136
1.6164267483107E+018,,,0,,1616426748,217904900,"""rgb_camera_link""","""obj-3""",,,-0.234282243386,-0.04588801177,0.872727973442,,0.088972916709,0.953654668494,-0.284009109444,0.0443330475499
1.61642674831071E+018,,,0,,1616426748,217904900,"""rgb_camera_link""","""obj-7""",,,0.0463051190361,-0.23190214786,0.999263019815,,-0.453027575154,0.848552104333,-0.242916253186,-0.125367604748
1.61642674831072E+018,,,0,,1616426748,217904900,"""rgb_camera_link""","""obj-10""",,,0.13934900478,-0.000168970370791,0.852179543778,,-0.25796276748,0.921561548727,-0.281465704137,-0.0704029821599
1.61642674831072E+018,,,0,,1616426748,217904900,"""rgb_camera_link""","""obj-4""",,,-0.178771173281,-0.214257719658,0.986541927904,,0.016314430261,0.958356116612,-0.283754317433,0.0277647340313
1.61642674831072E+018,,,0,,1616426748,217904900,"""rgb_camera_link""","""obj-12""",,,-0.000320319681781,0.187037364731,0.731832325765,,-0.363277548409,0.901600181725,-0.201372569377,-0.120812348036
1.61642674834297E+018,,,0,,1616426748,251256526,"""rgb_camera_link""","""obj-4""",,,-0.178866290343,-0.214374418461,0.98712436655,,0.0170374936892,0.958409488051,-0.283542671839,0.0276501405031
1.61642674834298E+018,,,0,,1616426748,251256526,"""rgb_camera_link""","""obj-10""",,,0.139394749315,-0.000163688553252,0.85243189662,,-0.257972240728,0.921590748159,-0.281563702004,-0.0695894937146
1.61642674834299E+018,,,0,,1616426748,251256526,"""rgb_camera_link""","""obj-7""",,,0.0462604443835,-0.231731293616,0.99869483156,,-0.453560509253,0.848080508997,-0.243401008664,-0.125691144031
1.616426748343E+018,,,0,,1616426748,251256526,"""rgb_camera_link""","""obj-3""",,,-0.23421046311,-0.0458709692831,0.872486569131,,0.08911405402,0.953535036191,-0.28437622782,0.0442694158823
1.61642674834302E+018,,,0,,1616426748,251256526,"""rgb_camera_link""","""obj-12""",,,-0.000314983714959,0.18701035909,0.731701584535,,-0.363131653764,0.901671530227,-0.200863792689,-0.121563112823
1.61642674837819E+018,,,0,,1616426748,284602153,"""rgb_camera_link""","""obj-7""",,,0.0462591513953,-0.231660712731,0.998253647292,,-0.453317867314,0.848196703593,-0.243049082124,-0.12646108835
1.61642674837821E+018,,,0,,1616426748,284602153,"""rgb_camera_link""","""obj-10""",,,0.139420720221,-0.000175495406291,0.852665986193,,-0.258012450489,0.921768130385,-0.280930929314,-0.0696484181678
1.61642674837821E+018,,,0,,1616426748,284602153,"""rgb_camera_link""","""obj-3""",,,-0.234308332842,-0.0458956023055,0.872841818961,,0.0890134564522,0.953360263564,-0.284834732848,0.0452767864442
1.61642674837821E+018,,,0,,1616426748,284602153,"""rgb_camera_link""","""obj-4""",,,-0.178927670627,-0.214425279233,0.987420424215,,0.0164463783791,0.958588451163,-0.283026986223,0.0270817836154
1.61642674837823E+018,,,0,,1616426748,284602153,"""rgb_camera_link""","""obj-12""",,,-0.000336727380538,0.187002800345,0.731537584901,,-0.363069422673,0.902060940926,-0.198786754667,-0.122272152773
1.61642674841431E+018,,,0,,1616426748,317961697,"""rgb_camera_link""","""obj-7""",,,0.0462507119758,-0.231488390582,0.997438118479,,-0.452767098225,0.848117536347,-0.244485060606,-0.126196887621
1.61642674841432E+018,,,0,,1616426748,317961697,"""rgb_camera_link""","""obj-3""",,,-0.234123614142,-0.0458688501137,0.872233345182,,0.0891959256607,0.953364459798,-0.28487193096,0.0445900952129
1.61642674841433E+018,,,0,,1616426748,317961697,"""rgb_camera_link""","""obj-4""",,,-0.17874676863,-0.21420834417,0.986384668713,,0.0171261505579,0.958457426528,-0.283469335312,0.0266681915068
1.61642674841433E+018,,,0,,1616426748,317961697,"""rgb_camera_link""","""obj-10""",,,0.139384255312,-0.000154789385385,0.852472072326,,-0.258047712788,0.921790089253,-0.28069723831,-0.0701674403404
1.61642674841433E+018,,,0,,1616426748,317961697,"""rgb_camera_link""","""obj-12""",,,-0.000339916994151,0.187072643081,0.73184979181,,-0.362990913045,0.902356268551,-0.199018160374,-0.119927200817
1.6164267484482E+018,,,0,,1616426748,351322540,"""rgb_camera_link""","""obj-7""",,,0.0463120899142,-0.231829546681,0.99910135481,,-0.45350077785,0.848375699736,-0.242754080644,-0.125164583318
1.61642674844827E+018,,,0,,1616426748,351322540,"""rgb_camera_link""","""obj-3""",,,-0.23436259931,-0.0458793297124,0.873100530244,,0.088338010912,0.953558380928,-0.284311617069,0.0457133939765
1.61642674844827E+018,,,0,,1616426748,351322540,"""rgb_camera_link""","""obj-4""",,,-0.178931725379,-0.214420155364,0.987291167982,,0.0173771166023,0.958548251258,-0.283073348651,0.0274365652494
1.61642674844829E+018,,,0,,1616426748,351322540,"""rgb_camera_link""","""obj-10""",,,0.139335106044,-0.000158901715954,0.852269588295,,-0.257898771619,0.921673033931,-0.281300725298,-0.0698351206011
1.61642674844835E+018,,,0,,1616426748,351322540,"""rgb_camera_link""","""obj-12""",,,-0.000324527018558,0.187031370274,0.731703849048,,-0.36333733267,0.901649442158,-0.201039688881,-0.120819326428
1.61642674848432E+018,,,0,,1616426748,384655415,"""rgb_camera_link""","""obj-10""",,,0.139461204337,-0.000163107179324,0.852654140583,,-0.258088328929,0.921788600618,-0.28088418506,-0.0692839434779
1.61642674848433E+018,,,0,,1616426748,384655415,"""rgb_camera_link""","""obj-4""",,,-0.178929432289,-0.214362747208,0.987255513204,,0.017236738346,0.958647346423,-0.282849157272,0.0263536388119
1.61642674848433E+018,,,0,,1616426748,384655415,"""rgb_camera_link""","""obj-7""",,,0.0462979867648,-0.231709931911,0.998547648108,,-0.452624418746,0.848514235565,-0.243872430086,-0.125223661668
1.61642674848434E+018,,,0,,1616426748,384655415,"""rgb_camera_link""","""obj-3""",,,-0.234306522018,-0.0459193188112,0.872841826652,,0.0884277977321,0.953585975197,-0.284442750933,0.0441206747078
1.61642674848434E+018,,,0,,1616426748,384655415,"""rgb_camera_link""","""obj-12""",,,-0.000338538597068,0.186982222943,0.731458269092,,-0.363014084731,0.901798653097,-0.19999120039,-0.122407039526
1.61642674851815E+018,,,0,,1616426748,418002325,"""rgb_camera_link""","""obj-3""",,,-0.234224352476,-0.0458830127684,0.872535356204,,0.0888806727285,0.953365404516,-0.284947015812,0.044719455137
1.61642674851817E+018,,,0,,1616426748,418002325,"""rgb_camera_link""","""obj-10""",,,0.139391391555,-0.000160069031874,0.852336587635,,-0.257835300086,0.92168680433,-0.281361477644,-0.0696427429983
1.61642674851817E+018,,,0,,1616426748,418002325,"""rgb_camera_link""","""obj-7""",,,0.0462391007609,-0.2316578411,0.998309189726,,-0.453019226257,0.848293936836,-0.243514072493,-0.12598362539
1.61642674851818E+018,,,0,,1616426748,418002325,"""rgb_camera_link""","""obj-4""",,,-0.178919723041,-0.214424208858,0.987322291494,,0.0164360441582,0.958551819893,-0.283072757806,0.0278940642351
1.61642674851819E+018,,,0,,1616426748,418002325,"""rgb_camera_link""","""obj-12""",,,-0.000340599077945,0.187018140039,0.731648205185,,-0.362636298353,0.901988279255,-0.200082030552,-0.121980491286
1.61642674855142E+018,,,0,,1616426748,451352543,"""rgb_camera_link""","""obj-7""",,,0.0462961635257,-0.231872270104,0.999150587559,,-0.453168204295,0.848545534229,-0.242607410738,-0.125501789672
1.61642674855143E+018,,,0,,1616426748,451352543,"""rgb_camera_link""","""obj-10""",,,0.13936755525,-0.000152953318418,0.852449918053,,-0.257859894115,0.92187154698,-0.280770066773,-0.0694931326063
1.61642674855143E+018,,,0,,1616426748,451352543,"""rgb_camera_link""","""obj-4""",,,-0.178980527883,-0.214476263323,0.987520521839,,0.0175264763489,0.958453789612,-0.283333935773,0.0279470328183
1.61642674855144E+018,,,0,,1616426748,451352543,"""rgb_camera_link""","""obj-3""",,,-0.234217900536,-0.0458735670039,0.872534492318,,0.0881863195508,0.953689632694,-0.284129723071,0.044379702601
1.61642674855144E+018,,,0,,1616426748,451352543,"""rgb_camera_link""","""obj-12""",,,-0.000336187627765,0.187050106253,0.731758240862,,-0.36300139849,0.901747746394,-0.20070027209,-0.121656842602
1.61642674858762E+018,,,0,,1616426748,484713118,"""rgb_camera_link""","""obj-3""",,,-0.234345291148,-0.0459073455512,0.873001688055,,0.0887472185338,0.953631173165,-0.283889609618,0.0460239755032
1.61642674858763E+018,,,0,,1616426748,484713118,"""rgb_camera_link""","""obj-7""",,,0.0462570473301,-0.231660500749,0.998466203689,,-0.452712407742,0.848174148404,-0.244531151286,-0.125923015795
1.61642674858763E+018,,,0,,1616426748,484713118,"""rgb_camera_link""","""obj-10""",,,0.139391688412,-0.00013572468542,0.852421432995,,-0.25794336099,0.921840620127,-0.280954574077,-0.0688449047512
1.61642674858765E+018,,,0,,1616426748,484713118,"""rgb_camera_link""","""obj-4""",,,-0.178815558826,-0.21431811522,0.986811635589,,0.0176078864569,0.958365527778,-0.283616412226,0.0280572310962
1.61642674858765E+018,,,0,,1616426748,484713118,"""rgb_camera_link""","""obj-12""",,,-0.000326189358368,0.187076525874,0.73183782217,,-0.363538955742,0.901806450455,-0.200517276929,-0.119905693064
1.61642674862307E+018,,,0,,1616426748,518029591,"""rgb_camera_link""","""obj-4""",,,-0.178964338785,-0.214426428038,0.987477299662,,0.016904921102,0.958610250232,-0.282787555915,0.0284922798513
1.61642674862308E+018,,,0,,1616426748,518029591,"""rgb_camera_link""","""obj-3""",,,-0.234368123275,-0.0459084570915,0.873113700408,,0.0888351561376,0.953482312722,-0.284337544342,0.0461731008037
1.61642674862309E+018,,,0,,1616426748,518029591,"""rgb_camera_link""","""obj-7""",,,0.0462808008095,-0.231861046112,0.999063749398,,-0.453115990468,0.848451760988,-0.242850140975,-0.12585435029
1.61642674862309E+018,,,0,,1616426748,518029591,"""rgb_camera_link""","""obj-10""",,,0.139426794793,-0.000157062856677,0.852493391908,,-0.257610398813,0.921785160289,-0.28138029411,-0.069095085064
1.6164267486231E+018,,,0,,1616426748,518029591,"""rgb_camera_link""","""obj-12""",,,-0.000332878787032,0.187104045869,0.732017454906,,-0.363178088734,0.901933740184,-0.200359844257,-0.120304351502
1.61642674865942E+018,,,0,,1616426748,551379259,"""rgb_camera_link""","""obj-4""",,,-0.178794854395,-0.21423958847,0.986627079955,,0.0171833408681,0.95859486547,-0.283047102793,0.0261716314138
1.61642674865943E+018,,,0,,1616426748,551379259,"""rgb_camera_link""","""obj-10""",,,0.139385138736,-0.000147553580884,0.852356031462,,-0.257895152557,0.921683477971,-0.281167479642,-0.0702460327291
1.61642674865944E+018,,,0,,1616426748,551379259,"""rgb_camera_link""","""obj-7""",,,0.0462443007261,-0.231412726591,0.99722488447,,-0.453210637387,0.848037559797,-0.244074922419,-0.125935886779
1.61642674865944E+018,,,0,,1616426748,551379259,"""rgb_camera_link""","""obj-3""",,,-0.234329697535,-0.0458796582691,0.872915722487,,0.0890450144923,0.953433094802,-0.284532567296,0.0455800096304
1.61642674865944E+018,,,0,,1616426748,551379259,"""rgb_camera_link""","""obj-12""",,,-0.000322873870627,0.186924718182,0.73135775319,,-0.363216904484,0.901730788353,-0.199993008219,-0.122302339706
1.61642674869537E+018,,,0,,1616426748,618048783,"""rgb_camera_link""","""obj-3""",,,-0.234390025442,-0.0459176320302,0.873208719278,,0.0888999384044,0.953621979782,-0.283902059789,0.0458425683816
1.6164267486954E+018,,,0,,1616426748,618048783,"""rgb_camera_link""","""obj-10""",,,0.139391843,-0.000153721862066,0.852340596317,,-0.257877483547,0.921738202454,-0.281004508848,-0.0702449686758
1.61642674869541E+018,,,0,,1616426748,618048783,"""rgb_camera_link""","""obj-7""",,,0.04627973046,-0.231509155109,0.997538369387,,-0.452737514343,0.848230431553,-0.244211364509,-0.126074135088
1.61642674869541E+018,,,0,,1616426748,618048783,"""rgb_camera_link""","""obj-4""",,,-0.178782395117,-0.214280902164,0.986640459692,,0.0172374507291,0.958386457377,-0.283670062437,0.0270104477118
1.61642674869541E+018,,,0,,1616426748,618048783,"""rgb_camera_link""","""obj-12""",,,-0.000330560607057,0.187055906184,0.731816033383,,-0.363182040168,0.90195239575,-0.200332859611,-0.120197449477
1.61642674873081E+018,,,0,,1616426748,651387025,"""rgb_camera_link""","""obj-3""",,,-0.234253718426,-0.0458808134205,0.872602782972,,0.0887542039164,0.953566310733,-0.284457392383,0.043794682799
1.61642674873082E+018,,,0,,1616426748,651387025,"""rgb_camera_link""","""obj-7""",,,0.0461999249976,-0.231164321838,0.996062350038,,-0.452642048749,0.84812795113,-0.244148448538,-0.127222990425
1.61642674873082E+018,,,0,,1616426748,651387025,"""rgb_camera_link""","""obj-4""",,,-0.17898365801,-0.214485504648,0.987603735314,,0.0162233395571,0.958543288831,-0.282958923471,0.0294247229068
1.61642674873083E+018,,,0,,1616426748,651387025,"""rgb_camera_link""","""obj-10""",,,0.139334663023,-0.000160864636854,0.852095082166,,-0.257894002345,0.921684685117,-0.281218399561,-0.0700302543478
1.61642674873083E+018,,,0,,1616426748,651387025,"""rgb_camera_link""","""obj-12""",,,-0.000344184989837,0.18699892817,0.731450230455,,-0.363512409029,0.901815749254,-0.199629695585,-0.121388086402
1.61642674876561E+018,,,0,,1616426748,684732247,"""rgb_camera_link""","""obj-7""",,,0.0462334224073,-0.231524229931,0.997901673083,,-0.452824103638,0.848254711881,-0.243964737473,-0.126077285052
1.61642674876562E+018,,,0,,1616426748,684732247,"""rgb_camera_link""","""obj-3""",,,-0.234133696508,-0.0458599104702,0.872256733356,,0.0886518827479,0.953648878401,-0.284134168754,0.0442993742244
1.61642674876562E+018,,,0,,1616426748,684732247,"""rgb_camera_link""","""obj-4""",,,-0.17884775117,-0.214337889178,0.986957844729,,0.0164529940467,0.958481345791,-0.283291940132,0.0280799824536
1.61642674876564E+018,,,0,,1616426748,684732247,"""rgb_camera_link""","""obj-10""",,,0.139404324759,-0.000150361029858,0.852395067552,,-0.258117919197,0.921718549038,-0.28118288419,-0.068892973422
1.61642674876564E+018,,,0,,1616426748,684732247,"""rgb_camera_link""","""obj-12""",,,-0.000333145910516,0.187044410856,0.73171981374,,-0.363286632997,0.901850230485,-0.200409589608,-0.120519626838
1.6164267488033E+018,,,0,,1616426748,718062503,"""rgb_camera_link""","""obj-7""",,,0.046263248547,-0.231678241213,0.998443691671,,-0.453088555828,0.848147066295,-0.243643130064,-0.126472683555
1.61642674880332E+018,,,0,,1616426748,718062503,"""rgb_camera_link""","""obj-3""",,,-0.234270865353,-0.0458605993233,0.872746651808,,0.0889486730185,0.95355369201,-0.284273628184,0.0448552599033
1.61642674880333E+018,,,0,,1616426748,718062503,"""rgb_camera_link""","""obj-4""",,,-0.178584256833,-0.213982816597,0.985359485424,,0.0176777959698,0.95865490245,-0.282975165412,0.0243583517262
1.61642674880334E+018,,,0,,1616426748,718062503,"""rgb_camera_link""","""obj-10""",,,0.139360302591,-0.000151527496255,0.852171440931,,-0.257918804599,0.92160752352,-0.281463234184,-0.0699707841064
1.61642674880339E+018,,,0,,1616426748,718062503,"""rgb_camera_link""","""obj-12""",,,-0.000351149063777,0.186932787532,0.731252734273,,-0.363276836389,0.901686005274,-0.200666248155,-0.121348032073
1.61642674883692E+018,,,0,,1616426748,751409612,"""rgb_camera_link""","""obj-3""",,,-0.23423968631,-0.0458913440464,0.872688899151,,0.0882597612852,0.95369697236,-0.2839625091,0.0451397039823
1.61642674883692E+018,,,0,,1616426748,751409612,"""rgb_camera_link""","""obj-10""",,,0.139393085243,-0.000139381741807,0.852439300421,,-0.257807358531,0.921793901666,-0.28114053168,-0.069219723966
1.61642674883693E+018,,,0,,1616426748,751409612,"""rgb_camera_link""","""obj-7""",,,0.0462577413723,-0.231460038192,0.997320916227,,-0.452968113699,0.848184031439,-0.243929575504,-0.126103524846
1.61642674883694E+018,,,0,,1616426748,751409612,"""rgb_camera_link""","""obj-4""",,,-0.178799613855,-0.214282219119,0.986707566299,,0.0168904632384,0.958347947422,-0.283807573135,0.0271511575209
1.61642674883694E+018,,,0,,1616426748,751409612,"""rgb_camera_link""","""obj-12""",,,-0.000330417164429,0.187056738631,0.731788577956,,-0.363433625845,0.90207295482,-0.199037783587,-0.120682826003
1.61642674887084E+018,,,0,,1616426748,784751553,"""rgb_camera_link""","""obj-7""",,,0.046290695395,-0.231717471652,0.998501855971,,-0.453216431427,0.848370313426,-0.2429032792,-0.125939169984
1.61642674887085E+018,,,0,,1616426748,784751553,"""rgb_camera_link""","""obj-4""",,,-0.178720455861,-0.214139096488,0.986142762259,,0.0175774867556,0.958546160507,-0.283190582428,0.0261416174083
1.61642674887086E+018,,,0,,1616426748,784751553,"""rgb_camera_link""","""obj-3""",,,-0.234327848332,-0.045898921833,0.8729560762,,0.0888777638729,0.953500989783,-0.284456024575,0.0449597114561
1.61642674887086E+018,,,0,,1616426748,784751553,"""rgb_camera_link""","""obj-10""",,,0.139388835916,-0.000153349058875,0.852461192125,,-0.257537945185,0.921966475095,-0.280694759793,-0.0697314664636
1.61642674887087E+018,,,0,,1616426748,784751553,"""rgb_camera_link""","""obj-12""",,,-0.00034589672197,0.186931173345,0.731257438245,,-0.363298851504,0.901622240742,-0.200728919736,-0.121651881516
1.61642674890561E+018,,,0,,1616426748,818096038,"""rgb_camera_link""","""obj-4""",,,-0.17892421964,-0.214409054204,0.987326767982,,0.0169786431392,0.958698017795,-0.282429538592,0.0290412135482
1.61642674890562E+018,,,0,,1616426748,818096038,"""rgb_camera_link""","""obj-10""",,,0.139431257104,-0.000147644152571,0.852551656015,,-0.258095716725,0.921759553629,-0.281156782732,-0.068533129396
1.61642674890562E+018,,,0,,1616426748,818096038,"""rgb_camera_link""","""obj-7""",,,0.0463223874045,-0.231859075153,0.999208759992,,-0.45337224589,0.848366763384,-0.242936169402,-0.12533738085
1.61642674890563E+018,,,0,,1616426748,818096038,"""rgb_camera_link""","""obj-3""",,,-0.234355034328,-0.0459216839369,0.873042435109,,0.0884801357755,0.953842585659,-0.283435027988,0.0449463264929
1.61642674890563E+018,,,0,,1616426748,818096038,"""rgb_camera_link""","""obj-12""",,,-0.000353830563881,0.187134726348,0.731874940913,,-0.363589515373,0.90227147297,-0.197888018615,-0.120620004406
1.61642674894269E+018,,,0,,1616426748,851431751,"""rgb_camera_link""","""obj-3""",,,-0.234356488664,-0.0459187015174,0.873018150779,,0.0886710590983,0.953537440158,-0.284111677802,0.0467370092309
1.61642674894271E+018,,,0,,1616426748,851431751,"""rgb_camera_link""","""obj-4""",,,-0.178829513203,-0.214310159833,0.986869996575,,0.017016899781,0.958688682457,-0.282431379087,0.0293078719369
1.61642674894271E+018,,,0,,1616426748,851431751,"""rgb_camera_link""","""obj-10""",,,0.139407256232,-0.000159734690308,0.852524185632,,-0.257966281819,0.921800340515,-0.280952266226,-0.0693062318511
1.61642674894271E+018,,,0,,1616426748,851431751,"""rgb_camera_link""","""obj-7""",,,0.0462381631737,-0.231646051042,0.99823936789,,-0.453017671586,0.848247286238,-0.243970815894,-0.125418386258
1.61642674894272E+018,,,0,,1616426748,851431751,"""rgb_camera_link""","""obj-12""",,,-0.000357713714892,0.187057599918,0.731854948496,,-0.363239401894,0.901887565874,-0.200517239661,-0.120203128214
1.61642674897748E+018,,,0,,1616426748,884784459,"""rgb_camera_link""","""obj-4""",,,-0.178787956664,-0.214322425021,0.986788442522,,0.0166761442334,0.958355171996,-0.283769436444,0.0274258539051
1.61642674897752E+018,,,0,,1616426748,884784459,"""rgb_camera_link""","""obj-7""",,,0.046297122851,-0.231871486213,0.999232887165,,-0.452823397739,0.848596001073,-0.243163322142,-0.125329151388
1.61642674897753E+018,,,0,,1616426748,884784459,"""rgb_camera_link""","""obj-3""",,,-0.234238045876,-0.0458898583955,0.872640337854,,0.088894293735,0.953639014817,-0.283988538192,0.0449549122498
1.61642674897753E+018,,,0,,1616426748,884784459,"""rgb_camera_link""","""obj-10""",,,0.139345337831,-0.000164069379618,0.852229651467,,-0.258508667394,0.921414733269,-0.281274826372,-0.0710818559521
1.61642674897753E+018,,,0,,1616426748,884784459,"""rgb_camera_link""","""obj-12""",,,-0.000326758638569,0.187180686189,0.732182384608,,-0.363075501818,0.902528640444,-0.197180424046,-0.121400632331
1.61642674901521E+018,,,0,,1616426748,918143643,"""rgb_camera_link""","""obj-4""",,,-0.178909472959,-0.214410175557,0.987166409439,,0.016284130152,0.958486848133,-0.283445252174,0.0263927656786
1.61642674901521E+018,,,0,,1616426748,918143643,"""rgb_camera_link""","""obj-7""",,,0.0462709074826,-0.231816991267,0.99875896401,,-0.45288245182,0.848445101073,-0.243202933971,-0.126058431716
1.61642674901522E+018,,,0,,1616426748,918143643,"""rgb_camera_link""","""obj-10""",,,0.139508997337,-0.000176003919653,0.85314517838,,-0.257942829237,0.922000629898,-0.280445541937,-0.0687795996014
1.61642674901523E+018,,,0,,1616426748,918143643,"""rgb_camera_link""","""obj-3""",,,-0.234387787266,-0.0459486423586,0.873124757925,,0.0880897852758,0.95383894348,-0.283385761205,0.0460865487762
1.61642674901524E+018,,,0,,1616426748,918143643,"""rgb_camera_link""","""obj-12""",,,-0.000372069013152,0.187007351936,0.731626797814,,-0.363157556804,0.901972550805,-0.199877895198,-0.120875694585
1.61642674905159E+018,,,0,,1616426748,951502821,"""rgb_camera_link""","""obj-4""",,,-0.178905528037,-0.214366213976,0.987136851585,,0.0176957942158,0.958694635382,-0.282640737746,0.0265644183542
1.6164267490516E+018,,,0,,1616426748,951502821,"""rgb_camera_link""","""obj-3""",,,-0.234313148385,-0.0458860506182,0.872941349119,,0.0882145112807,0.953446569266,-0.284768078353,0.0454420631802
1.61642674905161E+018,,,0,,1616426748,951502821,"""rgb_camera_link""","""obj-7""",,,0.0462590442316,-0.231416019254,0.99726249737,,-0.452955707644,0.84797580734,-0.244544169208,-0.12635785051
1.61642674905161E+018,,,0,,1616426748,951502821,"""rgb_camera_link""","""obj-10""",,,0.139485053761,-0.000154291500786,0.852895862803,,-0.257933722428,0.921925103604,-0.280640741451,-0.0690295039604
1.61642674905161E+018,,,0,,1616426748,951502821,"""rgb_camera_link""","""obj-12""",,,-0.000320628415677,0.187018085211,0.731698770879,,-0.363509935998,0.901758726674,-0.20031927226,-0.120681044321
1.61642674908678E+018,,,0,,1616426748,984879370,"""rgb_camera_link""","""obj-7""",,,0.0463271374907,-0.232004419976,0.99976809785,,-0.453237472355,0.848557113662,-0.24224006344,-0.125882366399
1.61642674908679E+018,,,0,,1616426748,984879370,"""rgb_camera_link""","""obj-10""",,,0.139385360278,-0.000159792671734,0.852281627874,,-0.25792921687,0.921786589944,-0.280948802015,-0.0696403068006
1.6164267490868E+018,,,0,,1616426748,984879370,"""rgb_camera_link""","""obj-4""",,,-0.178932539063,-0.214428259802,0.98739287935,,0.0167284739974,0.95845634296,-0.283206818823,0.0295887574894
1.61642674908681E+018,,,0,,1616426748,984879370,"""rgb_camera_link""","""obj-3""",,,-0.234250850202,-0.0459293312856,0.872615976781,,0.0883941441667,0.953732414062,-0.283723157649,0.0456303348496
1.61642674908681E+018,,,0,,1616426748,984879370,"""rgb_camera_link""","""obj-12""",,,-0.000338558956152,0.187003009126,0.731677452765,,-0.363467610891,0.901944806365,-0.199517706775,-0.120745794075
1.61642674911972E+018,,,0,,1616426749,18255373,"""rgb_camera_link""","""obj-3""",,,-0.234374073772,-0.0459590331954,0.873166205579,,0.0884182054489,0.953837752242,-0.283208695431,0.0465682099187
1.61642674911973E+018,,,0,,1616426749,18255373,"""rgb_camera_link""","""obj-4""",,,-0.178875140568,-0.214397031569,0.98710807272,,0.0165282617725,0.958468439082,-0.283435040151,0.0270119577509
1.61642674911974E+018,,,0,,1616426749,18255373,"""rgb_camera_link""","""obj-7""",,,0.0462721571684,-0.231788225861,0.998700100228,,-0.45276042569,0.84848609915,-0.243846225623,-0.124973416088
1.61642674911976E+018,,,0,,1616426749,18255373,"""rgb_camera_link""","""obj-10""",,,0.139466639497,-0.000174731293356,0.852852238475,,-0.257660759071,0.922063573236,-0.280560323992,-0.0685244828397
1.61642674911976E+018,,,0,,1616426749,18255373,"""rgb_camera_link""","""obj-12""",,,-0.000308029910975,0.187084860671,0.731958084015,,-0.363646043984,0.902095951319,-0.198950872934,-0.12001249713
1.61642674915585E+018,,,0,,1616426749,51626800,"""rgb_camera_link""","""obj-7""",,,0.0463100103762,-0.231769204521,0.998867653052,,-0.452911742145,0.848514748897,-0.243217191684,-0.125455459829
1.61642674915587E+018,,,0,,1616426749,51626800,"""rgb_camera_link""","""obj-4""",,,-0.178730986144,-0.214180836331,0.986246310843,,0.0174646719163,0.958597601808,-0.283075944855,0.0255662372609
1.61642674915588E+018,,,0,,1616426749,51626800,"""rgb_camera_link""","""obj-3""",,,-0.234182029416,-0.0458618764023,0.872462703222,,0.0889570900803,0.953376383991,-0.284793156288,0.045309653541
1.61642674915588E+018,,,0,,1616426749,51626800,"""rgb_camera_link""","""obj-10""",,,0.139433931788,-0.000173735686193,0.852493208258,,-0.25820029126,0.921942559268,-0.280511744577,-0.0683204812451
1.61642674915589E+018,,,0,,1616426749,51626800,"""rgb_camera_link""","""obj-12""",,,-0.000311613048719,0.187077375824,0.731823023867,,-0.363394806294,0.902047952678,-0.199173550457,-0.120762587856
1.6164267491901E+018,,,0,,1616426749,84960453,"""rgb_camera_link""","""obj-7""",,,0.0462260122794,-0.231546644948,0.997577420949,,-0.453009529691,0.848042049411,-0.243985504572,-0.126799534693
1.61642674919011E+018,,,0,,1616426749,84960453,"""rgb_camera_link""","""obj-10""",,,0.139486385515,-0.000177919831673,0.852930381451,,-0.258039478474,0.921863352088,-0.280775963565,-0.0689089682933
1.61642674919011E+018,,,0,,1616426749,84960453,"""rgb_camera_link""","""obj-4""",,,-0.17881854114,-0.214335294202,0.986700123032,,0.0173211154811,0.95831055759,-0.283836425091,0.0278879536975
1.61642674919012E+018,,,0,,1616426749,84960453,"""rgb_camera_link""","""obj-3""",,,-0.234382657397,-0.0459348619247,0.873086278778,,0.0887646862437,0.953633327798,-0.283896318818,0.0459041038589
1.61642674919012E+018,,,0,,1616426749,84960453,"""rgb_camera_link""","""obj-12""",,,-0.000326633523324,0.186940638002,0.731550813901,,-0.363107062648,0.901330232051,-0.202112958064,-0.122095970562
1.61642674922336E+018,,,0,,1616426749,118290634,"""rgb_camera_link""","""obj-7""",,,0.0462960621709,-0.231501882073,0.997575786845,,-0.453367090019,0.848219148693,-0.24314421492,-0.125950181534
1.61642674922339E+018,,,0,,1616426749,118290634,"""rgb_camera_link""","""obj-4""",,,-0.178816156317,-0.214209007457,0.98647368354,,0.0172295018635,0.958762612845,-0.282708118172,0.0235269291742
1.6164267492234E+018,,,0,,1616426749,118290634,"""rgb_camera_link""","""obj-3""",,,-0.234199889422,-0.0459126138404,0.872499208427,,0.0892320466032,0.953480980685,-0.284383579777,0.04514023576
1.6164267492234E+018,,,0,,1616426749,118290634,"""rgb_camera_link""","""obj-10""",,,0.139417877988,-0.00017725068289,0.852507736855,,-0.258040200157,0.921511341977,-0.281447184596,-0.0708490225356
1.61642674922341E+018,,,0,,1616426749,118290634,"""rgb_camera_link""","""obj-12""",,,-0.000328153591911,0.187053265361,0.731909433805,,-0.36306731845,0.901734061033,-0.201447040852,-0.120319969987
1.61642674925764E+018,,,0,,1616426749,184965053,"""rgb_camera_link""","""obj-4""",,,-0.178961963552,-0.214504906804,0.987553659931,,0.0167795872478,0.958444511389,-0.283409735206,0.0279550716575
1.61642674925765E+018,,,0,,1616426749,184965053,"""rgb_camera_link""","""obj-3""",,,-0.234277624362,-0.0459201236559,0.872717116058,,0.0884027607008,0.953520371807,-0.284395050194,0.0458618346132
1.61642674925767E+018,,,0,,1616426749,184965053,"""rgb_camera_link""","""obj-10""",,,0.139427278804,-0.00017063079249,0.85242575659,,-0.258153205348,0.921760678908,-0.280984025577,-0.0690083383202
1.61642674925767E+018,,,0,,1616426749,184965053,"""rgb_camera_link""","""obj-7""",,,0.0463023567633,-0.231537935539,0.997630562547,,-0.453105905787,0.848038397483,-0.244166583243,-0.126129275593
1.61642674925768E+018,,,0,,1616426749,184965053,"""rgb_camera_link""","""obj-12""",,,-0.00033590994642,0.186951008734,0.731428958268,,-0.363039101676,0.902032546723,-0.199130842867,-0.122011486039
1.61642674929318E+018,,,0,,1616426749,218309778,"""rgb_camera_link""","""obj-3""",,,-0.234359105355,-0.0460039956159,0.872997707398,,0.0885051435672,0.953762023415,-0.283647050604,0.0452680122965
1.61642674929319E+018,,,0,,1616426749,218309778,"""rgb_camera_link""","""obj-4""",,,-0.178733081967,-0.2142448641,0.98607663592,,0.0178315679568,0.958474433707,-0.283450905062,0.0257755607986
1.61642674929319E+018,,,0,,1616426749,218309778,"""rgb_camera_link""","""obj-7""",,,0.046289195209,-0.231822812161,0.998663395928,,-0.453124392973,0.84846258191,-0.242837297103,-0.125775906784
1.6164267492932E+018,,,0,,1616426749,218309778,"""rgb_camera_link""","""obj-10""",,,0.139455405679,-0.000226706492195,0.852612427177,,-0.258004013337,0.921916363885,-0.280723180735,-0.0685466476252
1.6164267492932E+018,,,0,,1616426749,218309778,"""rgb_camera_link""","""obj-12""",,,-0.000339151428401,0.186912753709,0.731390831882,,-0.363600673475,0.901631356293,-0.200116368821,-0.121691768528
1.61642674932564E+018,,,0,,1616426749,251624369,"""rgb_camera_link""","""obj-10""",,,0.139452004209,-0.000222671715438,0.852591638715,,-0.258115387725,0.921549040384,-0.281369495159,-0.0703919028001
1.61642674932565E+018,,,0,,1616426749,251624369,"""rgb_camera_link""","""obj-7""",,,0.0463033547717,-0.232001992364,0.999638021591,,-0.452666391639,0.84864536428,-0.243570695467,-0.124769787512
1.61642674932566E+018,,,0,,1616426749,251624369,"""rgb_camera_link""","""obj-4""",,,-0.17881115742,-0.214309448319,0.986642286373,,0.0166786097801,0.95862686735,-0.283041986953,0.0253690124385
1.61642674932566E+018,,,0,,1616426749,251624369,"""rgb_camera_link""","""obj-3""",,,-0.234164894616,-0.0459434522756,0.872346072149,,0.0889366948889,0.953636407398,-0.283995339663,0.0448833358448
1.61642674932568E+018,,,0,,1616426749,251624369,"""rgb_camera_link""","""obj-12""",,,-0.000310789078303,0.186975213332,0.731605198987,,-0.363259314429,0.901832030371,-0.199232459696,-0.122670642294
1.61642674936162E+018,,,0,,1616426749,284960949,"""rgb_camera_link""","""obj-7""",,,0.0462198863137,-0.231335143475,0.996679983649,,-0.453044008122,0.847885496556,-0.244730554964,-0.126286447813
1.61642674936163E+018,,,0,,1616426749,284960949,"""rgb_camera_link""","""obj-10""",,,0.139421653683,-0.000245369199772,0.852563283863,,-0.258389359184,0.921536666217,-0.281383724765,-0.0694860512254
1.61642674936163E+018,,,0,,1616426749,284960949,"""rgb_camera_link""","""obj-4""",,,-0.178863553085,-0.214386517002,0.986774521269,,0.0169583396824,0.958602793301,-0.283052836885,0.025965186743
1.61642674936165E+018,,,0,,1616426749,284960949,"""rgb_camera_link""","""obj-3""",,,-0.234306481681,-0.0459850672633,0.872883172963,,0.0887959612439,0.953621979372,-0.283998347293,0.0454459729893
1.61642674936166E+018,,,0,,1616426749,284960949,"""rgb_camera_link""","""obj-12""",,,-0.00031789808508,0.187004463024,0.731807254055,,-0.363159181122,0.90153448279,-0.202178904861,-0.120310747384
1.61642674939423E+018,,,0,,1616426749,318303228,"""rgb_camera_link""","""obj-3""",,,-0.23442136907,-0.0459853428077,0.873381706857,,0.0884761508435,0.953743220814,-0.283617850321,0.0458993950229
1.61642674939424E+018,,,0,,1616426749,318303228,"""rgb_camera_link""","""obj-4""",,,-0.178865616309,-0.214356530965,0.986865994095,,0.0175580734454,0.958505299165,-0.283282142502,0.0266558299307
1.61642674939425E+018,,,0,,1616426749,318303228,"""rgb_camera_link""","""obj-10""",,,0.13931249883,-0.00021775080177,0.851968159493,,-0.257908517211,0.921422048323,-0.281952071849,-0.0704814499967
1.61642674939426E+018,,,0,,1616426749,318303228,"""rgb_camera_link""","""obj-7""",,,0.0463225369216,-0.231876229997,0.998945891386,,-0.453022957648,0.848397781361,-0.243000415295,-0.126262435395
1.61642674939427E+018,,,0,,1616426749,318303228,"""rgb_camera_link""","""obj-12""",,,-0.000331352028583,0.186902121318,0.731465637799,,-0.363250926836,0.901723526102,-0.200653072649,-0.121168440874
1.61642674943069E+018,,,0,,1616426749,351650961,"""rgb_camera_link""","""obj-10""",,,0.139452222061,-0.000229412891434,0.852838278557,,-0.257924823856,0.92194153685,-0.280674173106,-0.0687065966271
1.6164267494307E+018,,,0,,1616426749,351650961,"""rgb_camera_link""","""obj-7""",,,0.0462718086854,-0.231732617939,0.998265240658,,-0.45336682671,0.848238679789,-0.242757865609,-0.126563348701
1.61642674943076E+018,,,0,,1616426749,351650961,"""rgb_camera_link""","""obj-4""",,,-0.178714912377,-0.214211720458,0.986032540366,,0.0175580969902,0.958525657681,-0.283312412643,0.0255803369725
1.61642674943076E+018,,,0,,1616426749,351650961,"""rgb_camera_link""","""obj-3""",,,-0.234365347759,-0.0459993712642,0.873002636416,,0.0895826186802,0.953660029786,-0.283739641429,0.0447137328037
1.61642674943077E+018,,,0,,1616426749,351650961,"""rgb_camera_link""","""obj-12""",,,-0.000320530910613,0.187029433159,0.73189216055,,-0.36367765111,0.901935114044,-0.199301301128,-0.120542969543
1.61642674946769E+018,,,0,,1616426749,384980277,"""rgb_camera_link""","""obj-3""",,,-0.234200748202,-0.0459800928069,0.87249323155,,0.0889264570682,0.953710755019,-0.283798401541,0.0445684673009
1.6164267494677E+018,,,0,,1616426749,384980277,"""rgb_camera_link""","""obj-4""",,,-0.178985749167,-0.214560767671,0.987472260439,,0.0174145560823,0.958663018126,-0.282681663409,0.0274413572395
1.61642674946771E+018,,,0,,1616426749,384980277,"""rgb_camera_link""","""obj-10""",,,0.139358896577,-0.00025282989287,0.852212629604,,-0.257949135748,0.921597250954,-0.281532058678,-0.0697169300627
1.61642674946771E+018,,,0,,1616426749,384980277,"""rgb_camera_link""","""obj-7""",,,0.0461915091012,-0.231349786929,0.996510383095,,-0.452805852166,0.847982479257,-0.244667731994,-0.126610726394
1.61642674946772E+018,,,0,,1616426749,384980277,"""rgb_camera_link""","""obj-12""",,,-0.000317454649841,0.187077055686,0.732019536981,,-0.363496183917,0.902054587729,-0.198928093151,-0.120812494347
1.61642674950402E+018,,,0,,1616426749,418321394,"""rgb_camera_link""","""obj-7""",,,0.0462713792004,-0.231615520489,0.997854813637,,-0.453199742579,0.848052230666,-0.243877467397,-0.126258418668
1.61642674950404E+018,,,0,,1616426749,418321394,"""rgb_camera_link""","""obj-10""",,,0.139372631284,-0.000216951736118,0.852291933654,,-0.257979860232,0.921750546139,-0.281111889161,-0.0692706877415
1.61642674950404E+018,,,0,,1616426749,418321394,"""rgb_camera_link""","""obj-3""",,,-0.234305278898,-0.0459708554899,0.872736395432,,0.0893079195952,0.953530922604,-0.284267375753,0.0446646864817
1.61642674950405E+018,,,0,,1616426749,418321394,"""rgb_camera_link""","""obj-4""",,,-0.178996469723,-0.214513579596,0.987523287837,,0.017066549912,0.958560433142,-0.28303584608,0.0275923671199
1.61642674950405E+018,,,0,,1616426749,418321394,"""rgb_camera_link""","""obj-12""",,,-0.000327106143589,0.187005575936,0.731879165519,,-0.363084264252,0.902089840548,-0.199038410336,-0.121603650615
1.61642674953747E+018,,,0,,1616426749,451655883,"""rgb_camera_link""","""obj-3""",,,-0.23417845777,-0.0459420456962,0.872387641532,,0.0885157053546,0.953517997154,-0.284406201051,0.0456235883432
1.61642674953748E+018,,,0,,1616426749,451655883,"""rgb_camera_link""","""obj-4""",,,-0.178941116931,-0.214496854999,0.987301651352,,0.0173163216116,0.958477816237,-0.28328834669,0.0277152199607
1.61642674953748E+018,,,0,,1616426749,451655883,"""rgb_camera_link""","""obj-10""",,,0.139382913278,-0.000224787159339,0.852289977989,,-0.258113237252,0.92156419261,-0.281266449506,-0.070612888607
1.61642674953749E+018,,,0,,1616426749,451655883,"""rgb_camera_link""","""obj-7""",,,0.0462418046978,-0.231626381378,0.99777809389,,-0.452531460615,0.848417843074,-0.243867948976,-0.126217527187
1.6164267495375E+018,,,0,,1616426749,451655883,"""rgb_camera_link""","""obj-12""",,,-0.000319819369278,0.187127634767,0.73225229988,,-0.363422110322,0.902170642558,-0.199169555559,-0.119766395847
1.61642674957223E+018,,,0,,1616426749,485000881,"""rgb_camera_link""","""obj-7""",,,0.0462426345365,-0.231567452541,0.997716312719,,-0.453156914629,0.847965624538,-0.243928929134,-0.126892820357
1.61642674957228E+018,,,0,,1616426749,485000881,"""rgb_camera_link""","""obj-4""",,,-0.178647057998,-0.214170171433,0.985812745114,,0.0169482102727,0.958290576994,-0.283993534463,0.02719559884
1.61642674957229E+018,,,0,,1616426749,485000881,"""rgb_camera_link""","""obj-3""",,,-0.234327026552,-0.0459487763176,0.87294928399,,0.0887265246527,0.953793586467,-0.283551370093,0.0447662680521
1.61642674957229E+018,,,0,,1616426749,485000881,"""rgb_camera_link""","""obj-10""",,,0.139424667381,-0.000211220602324,0.852676109693,,-0.258262847455,0.921633513218,-0.28114641505,-0.0696323361786
1.6164267495723E+018,,,0,,1616426749,485000881,"""rgb_camera_link""","""obj-12""",,,-0.000334468468492,0.1870158337,0.731885719925,,-0.363686635681,0.901986508348,-0.199296310266,-0.12013888005
1.61642674960864E+018,,,0,,1616426749,518353285,"""rgb_camera_link""","""obj-7""",,,0.0463017179579,-0.231819600756,0.99867829387,,-0.453089047392,0.848293672288,-0.24292705456,-0.126864521643
1.61642674960865E+018,,,0,,1616426749,518353285,"""rgb_camera_link""","""obj-4""",,,-0.178862711906,-0.214386747421,0.986758770366,,0.017171632956,0.958461484096,-0.283413538703,0.0270829209114
1.61642674960865E+018,,,0,,1616426749,518353285,"""rgb_camera_link""","""obj-3""",,,-0.234339094703,-0.0459857952696,0.87291924536,,0.0886383134161,0.953772808404,-0.28366465255,0.0446659180694
1.61642674960866E+018,,,0,,1616426749,518353285,"""rgb_camera_link""","""obj-10""",,,0.139383082946,-0.000251789883295,0.852525668472,,-0.257528096869,0.921988272531,-0.281030977897,-0.0681064908765
1.61642674960867E+018,,,0,,1616426749,518353285,"""rgb_camera_link""","""obj-12""",,,-0.000298094402524,0.187001249047,0.731811114276,,-0.363561574201,0.901769983442,-0.200710647036,-0.119787791091
1.61642674964427E+018,,,0,,1616426749,551704938,"""rgb_camera_link""","""obj-3""",,,-0.234169784887,-0.045948566393,0.872261776136,,0.0891369337663,0.953796823804,-0.283490439437,0.0442650730002
1.61642674964429E+018,,,0,,1616426749,551704938,"""rgb_camera_link""","""obj-7""",,,0.0462925814018,-0.231818023853,0.998767083934,,-0.452617261583,0.848490293615,-0.24382470473,-0.125504380489
1.61642674964429E+018,,,0,,1616426749,551704938,"""rgb_camera_link""","""obj-10""",,,0.139373205112,-0.000210212096493,0.852254480222,,-0.258322724951,0.921540714218,-0.281164362275,-0.070559784572
1.6164267496443E+018,,,0,,1616426749,551704938,"""rgb_camera_link""","""obj-4""",,,-0.178840085215,-0.214337528729,0.986769051781,,0.0176596942995,0.958453749715,-0.283319341957,0.0280124138127
1.6164267496443E+018,,,0,,1616426749,551704938,"""rgb_camera_link""","""obj-12""",,,-0.00034551585116,0.186987077432,0.731669159953,,-0.363212065098,0.901604732549,-0.201296877819,-0.121101069333
1.61642674967975E+018,,,0,,1616426749,585040558,"""rgb_camera_link""","""obj-7""",,,0.0463566640286,-0.232111854763,1.00013095627,,-0.453176538408,0.848582476533,-0.242376131626,-0.125668676986
1.61642674967976E+018,,,0,,1616426749,585040558,"""rgb_camera_link""","""obj-10""",,,0.139448399427,-0.000223707535862,0.852697194032,,-0.25780423011,0.921801105064,-0.281168641685,-0.0690209864742
1.61642674967976E+018,,,0,,1616426749,585040558,"""rgb_camera_link""","""obj-3""",,,-0.234328846354,-0.0459710672341,0.872934086379,,0.0887961207043,0.953642597578,-0.28403255497,0.0447945616117
1.61642674967977E+018,,,0,,1616426749,585040558,"""rgb_camera_link""","""obj-4""",,,-0.178788818016,-0.214350795492,0.986535289019,,0.017256460319,0.95846585092,-0.283513798281,0.0257944447798
1.61642674967977E+018,,,0,,1616426749,585040558,"""rgb_camera_link""","""obj-12""",,,-0.000316710194416,0.186871617983,0.731358458845,,-0.363551071562,0.90109712657,-0.204180986212,-0.11901559445
1.61642674971162E+018,,,0,,1616426749,618400009,"""rgb_camera_link""","""obj-3""",,,-0.234161797979,-0.0459235426102,0.872336168983,,0.0889618597754,0.953682859714,-0.283942597103,0.0441745644362
1.61642674971163E+018,,,0,,1616426749,618400009,"""rgb_camera_link""","""obj-4""",,,-0.178885397945,-0.214396002012,0.987051558396,,0.0174243377359,0.958623962171,-0.282918479375,0.0263367734252
1.61642674971164E+018,,,0,,1616426749,618400009,"""rgb_camera_link""","""obj-10""",,,0.13946157745,-0.000183675400688,0.852763138641,,-0.258247050873,0.921851044156,-0.280602147533,-0.0690039702007
1.61642674971164E+018,,,0,,1616426749,618400009,"""rgb_camera_link""","""obj-7""",,,0.0462738542549,-0.231608002722,0.997823971464,,-0.452976303647,0.848155828752,-0.243994111774,-0.126138938901
1.61642674971165E+018,,,0,,1616426749,618400009,"""rgb_camera_link""","""obj-12""",,,-0.000332888330058,0.187088189916,0.732015072272,,-0.363448882382,0.902451035189,-0.198295014955,-0.11902153597
1.6164267497449E+018,,,0,,1616426749,651734677,"""rgb_camera_link""","""obj-4""",,,-0.178875332252,-0.214387894068,0.98692108818,,0.0171645242848,0.958509799461,-0.283250792974,0.0270800982781
1.61642674974491E+018,,,0,,1616426749,651734677,"""rgb_camera_link""","""obj-3""",,,-0.234286533771,-0.0459485070334,0.87270826438,,0.0890342866909,0.953560870666,-0.284172578927,0.0451719726728
1.61642674974491E+018,,,0,,1616426749,651734677,"""rgb_camera_link""","""obj-7""",,,0.0462529714886,-0.231533054553,0.997488446136,,-0.453380726907,0.848058051882,-0.243266197103,-0.126747838067
1.61642674974492E+018,,,0,,1616426749,651734677,"""rgb_camera_link""","""obj-10""",,,0.139311850488,-0.000217451222666,0.851968293735,,-0.258105280075,0.921490192749,-0.281635987512,-0.0701331562349
1.61642674974492E+018,,,0,,1616426749,651734677,"""rgb_camera_link""","""obj-12""",,,-0.000299267290664,0.18698530759,0.731832307663,,-0.363362623359,0.901920711937,-0.200678737861,-0.119309167688
1.61642674977832E+018,,,0,,1616426749,685088078,"""rgb_camera_link""","""obj-7""",,,0.0463143148265,-0.231854037987,0.998981949474,,-0.453076867002,0.848195198093,-0.243310316989,-0.126831968234
1.61642674977833E+018,,,0,,1616426749,685088078,"""rgb_camera_link""","""obj-10""",,,0.139440142932,-0.000200363487281,0.852665830451,,-0.257839024127,0.921734080544,-0.281226700241,-0.0695475770469
1.61642674977833E+018,,,0,,1616426749,685088078,"""rgb_camera_link""","""obj-4""",,,-0.178775260084,-0.214296871508,0.986518641553,,0.0170996377587,0.958324912522,-0.283836829928,0.0275248688473
1.61642674977834E+018,,,0,,1616426749,685088078,"""rgb_camera_link""","""obj-3""",,,-0.234142530308,-0.0459185434965,0.872202920467,,0.0891030091387,0.953389641545,-0.284804443881,0.0446684889288
1.61642674977835E+018,,,0,,1616426749,685088078,"""rgb_camera_link""","""obj-12""",,,-0.00033982944291,0.187003311666,0.731685889637,,-0.363155365716,0.901733438019,-0.200515085689,-0.121608747718
1.61642674981298E+018,,,0,,1616426749,718437317,"""rgb_camera_link""","""obj-7""",,,0.0462265968618,-0.231824239572,0.998793779272,,-0.452878261476,0.848421765777,-0.243528899771,-0.125600408495
1.61642674981299E+018,,,0,,1616426749,718437317,"""rgb_camera_link""","""obj-3""",,,-0.234237295143,-0.0459605394344,0.8726350313,,0.0889207486885,0.953727868073,-0.283698477504,0.0448489462004
1.61642674981299E+018,,,0,,1616426749,718437317,"""rgb_camera_link""","""obj-4""",,,-0.1790038714,-0.214676300554,0.987889545053,,0.0173253033455,0.95808809731,-0.28458676321,0.0278819989062
1.616426749813E+018,,,0,,1616426749,718437317,"""rgb_camera_link""","""obj-10""",,,0.139413253191,-0.00020197553799,0.852521808797,,-0.258107159324,0.921542754869,-0.281479498385,-0.0700638083724
1.616426749813E+018,,,0,,1616426749,718437317,"""rgb_camera_link""","""obj-12""",,,-0.000333164189279,0.186936457844,0.731560467033,,-0.362858824412,0.901724727396,-0.201367374828,-0.121149370219
1.61642674984711E+018,,,0,,1616426749,751799866,"""rgb_camera_link""","""obj-10""",,,0.139297282518,-0.000210378225879,0.851810921571,,-0.258069888185,0.921463139699,-0.281808538042,-0.0699254093617
1.61642674984712E+018,,,0,,1616426749,751799866,"""rgb_camera_link""","""obj-7""",,,0.0462855256626,-0.23179231851,0.998671066753,,-0.452820241025,0.848657819816,-0.242928356583,-0.12537762062
1.61642674984714E+018,,,0,,1616426749,751799866,"""rgb_camera_link""","""obj-4""",,,-0.178888164153,-0.214417501245,0.987081295273,,0.017198916057,0.958404557917,-0.283495042667,0.0282039258685
1.61642674984715E+018,,,0,,1616426749,751799866,"""rgb_camera_link""","""obj-3""",,,-0.23414838556,-0.045944106783,0.872346992735,,0.0889048375976,0.953694455144,-0.283834614045,0.0447294975363
1.61642674984715E+018,,,0,,1616426749,751799866,"""rgb_camera_link""","""obj-12""",,,-0.000351370404554,0.186987324378,0.731649697713,,-0.363064727265,0.901952573326,-0.199768035822,-0.121483707346
1.6164267498796E+018,,,0,,1616426749,785182617,"""rgb_camera_link""","""obj-7""",,,0.0463439815625,-0.231756384312,0.998599879637,,-0.452803181328,0.848455902648,-0.243265878724,-0.126149009073
1.61642674987962E+018,,,0,,1616426749,785182617,"""rgb_camera_link""","""obj-4""",,,-0.179015151606,-0.214506870317,0.987656400505,,0.0173438825109,0.9584547448,-0.283275094832,0.0286166482796
1.61642674987963E+018,,,0,,1616426749,785182617,"""rgb_camera_link""","""obj-3""",,,-0.234223162252,-0.0459560471299,0.872545267711,,0.0888756072085,0.953686149117,-0.283754712317,0.0454655766917
1.61642674987963E+018,,,0,,1616426749,785182617,"""rgb_camera_link""","""obj-10""",,,0.139447301367,-0.000191833807774,0.852648897518,,-0.258035935731,0.921735067794,-0.281086159359,-0.0693721247143
1.61642674987964E+018,,,0,,1616426749,785182617,"""rgb_camera_link""","""obj-12""",,,-0.000339522463625,0.187005133651,0.731670457311,,-0.363200919162,0.901847016848,-0.200331562405,-0.120931036657
1.61642674991323E+018,,,0,,1616426749,818544494,"""rgb_camera_link""","""obj-3""",,,-0.234303281259,-0.0459546111096,0.872850803513,,0.0882423288895,0.953844884088,-0.283508244814,0.0449032695322
1.61642674991325E+018,,,0,,1616426749,818544494,"""rgb_camera_link""","""obj-7""",,,0.0463104219463,-0.23193448849,0.999397501228,,-0.452759804612,0.848895541459,-0.242485984032,-0.124841766111
1.61642674991325E+018,,,0,,1616426749,818544494,"""rgb_camera_link""","""obj-10""",,,0.139427767425,-0.000193662760041,0.852634667521,,-0.25796395434,0.92183007469,-0.280937014558,-0.0689804719472
1.61642674991326E+018,,,0,,1616426749,818544494,"""rgb_camera_link""","""obj-4""",,,-0.178816219327,-0.214306832342,0.986682153986,,0.0170562735213,0.958532472932,-0.283204956548,0.02682413942
1.61642674991326E+018,,,0,,1616426749,818544494,"""rgb_camera_link""","""obj-12""",,,-0.000341891321658,0.187075449478,0.731952716654,,-0.362960605772,0.902156611343,-0.199243415124,-0.121140863452
1.61642674994642E+018,,,0,,1616426749,851897460,"""rgb_camera_link""","""obj-7""",,,0.0463101367532,-0.231816850451,0.99884816279,,-0.453519363205,0.848168431546,-0.24313503166,-0.125761104112
1.61642674994644E+018,,,0,,1616426749,851897460,"""rgb_camera_link""","""obj-3""",,,-0.234379013668,-0.0459715392317,0.873134165953,,0.0888704682765,0.953634844958,-0.283879719577,0.0457703743011
1.61642674994645E+018,,,0,,1616426749,851897460,"""rgb_camera_link""","""obj-10""",,,0.139445522166,-0.000145293764463,0.852614605497,,-0.258272867088,0.921702794012,-0.281038106672,-0.0691134446743
1.61642674994645E+018,,,0,,1616426749,851897460,"""rgb_camera_link""","""obj-4""",,,-0.17881277052,-0.21433143553,0.986722457888,,0.0173016628111,0.958391457419,-0.283717244017,0.0262867315825
1.61642674994646E+018,,,0,,1616426749,851897460,"""rgb_camera_link""","""obj-12""",,,-0.000375721174028,0.187056471331,0.731826629027,,-0.363053964822,0.902040386913,-0.199165336021,-0.121852894644
1.61642674998023E+018,,,0,,1616426749,885238737,"""rgb_camera_link""","""obj-3""",,,-0.234296739876,-0.0459481515032,0.872841094225,,0.0887211370299,0.953592279147,-0.283956315818,0.0464665008551
1.61642674998024E+018,,,0,,1616426749,885238737,"""rgb_camera_link""","""obj-10""",,,0.139390977003,-0.000164935868232,0.852293718786,,-0.258213199402,0.921555023133,-0.28162635714,-0.0689121031295
1.61642674998024E+018,,,0,,1616426749,885238737,"""rgb_camera_link""","""obj-7""",,,0.046303721741,-0.231769296125,0.998539475837,,-0.453361025946,0.848227195083,-0.243011821051,-0.126173137018
1.61642674998024E+018,,,0,,1616426749,885238737,"""rgb_camera_link""","""obj-4""",,,-0.178808335737,-0.2142681354,0.986482247779,,0.0174640191414,0.958283614517,-0.28398192972,0.0272357444473
1.61642674998025E+018,,,0,,1616426749,885238737,"""rgb_camera_link""","""obj-12""",,,-0.000327914272438,0.186960087897,0.731489357428,,-0.363122921843,0.901736363895,-0.199820218576,-0.122821634538
1.61642675001547E+018,,,0,,1616426749,918574733,"""rgb_camera_link""","""obj-10""",,,0.139463061424,-0.000153844051889,0.852956327402,,-0.258337338148,0.921757193637,-0.280635050501,-0.0697815457554
1.61642675001548E+018,,,0,,1616426749,918574733,"""rgb_camera_link""","""obj-7""",,,0.0462291872898,-0.231419177212,0.997237634076,,-0.452673280226,0.848247402115,-0.244330063315,-0.125960574529
1.61642675001549E+018,,,0,,1616426749,918574733,"""rgb_camera_link""","""obj-4""",,,-0.178687308285,-0.214067440992,0.985634385237,,0.017975347858,0.958597926894,-0.283156481987,0.024275669558
1.6164267500155E+018,,,0,,1616426749,918574733,"""rgb_camera_link""","""obj-3""",,,-0.234279281579,-0.0459041951042,0.872844428515,,0.0885119831722,0.953595498323,-0.284320312138,0.0445332967391
1.6164267500155E+018,,,0,,1616426749,918574733,"""rgb_camera_link""","""obj-12""",,,-0.000322724043453,0.186828518548,0.731154601663,,-0.363244144265,0.901093102575,-0.203772751276,-0.120671363573
1.61642675004821E+018,,,0,,1616426749,951943476,"""rgb_camera_link""","""obj-3""",,,-0.234245606622,-0.0459391885499,0.872541327956,,0.0882887447736,0.953897597659,-0.283465145076,0.0439543200739
1.61642675004823E+018,,,0,,1616426749,951943476,"""rgb_camera_link""","""obj-4""",,,-0.178676955466,-0.214170425315,0.986012052277,,0.0172068902092,0.958300621658,-0.283978920023,0.026829357827
1.61642675004823E+018,,,0,,1616426749,951943476,"""rgb_camera_link""","""obj-10""",,,0.139469521388,-0.000200350002165,0.852763743504,,-0.257951883161,0.921823033179,-0.280922071768,-0.069180279475
1.61642675004824E+018,,,0,,1616426749,951943476,"""rgb_camera_link""","""obj-7""",,,0.046290437389,-0.231894701122,0.999277769833,,-0.453767019665,0.848203263573,-0.242474010829,-0.125908973474
1.61642675004824E+018,,,0,,1616426749,951943476,"""rgb_camera_link""","""obj-12""",,,-0.000324790558998,0.187187810601,0.732281896175,,-0.363842687275,0.902524715791,-0.196614246319,-0.120043635599
1.61642675008193E+018,,,0,,1616426749,985300856,"""rgb_camera_link""","""obj-3""",,,-0.234317882168,-0.0459561834763,0.872830074717,,0.0885280065752,0.953648656263,-0.284164640826,0.0443563903443
1.61642675008194E+018,,,0,,1616426749,985300856,"""rgb_camera_link""","""obj-10""",,,0.139405624033,-0.000177737058619,0.852607146802,,-0.258221293039,0.921858711478,-0.280618364259,-0.0689319485788
1.61642675008195E+018,,,0,,1616426749,985300856,"""rgb_camera_link""","""obj-7""",,,0.0462794625982,-0.231730891458,0.998449546664,,-0.453642812177,0.847901081496,-0.243640405975,-0.126140031448
1.61642675008195E+018,,,0,,1616426749,985300856,"""rgb_camera_link""","""obj-4""",,,-0.178871305306,-0.214372358807,0.987000253381,,0.016877136478,0.95866139237,-0.282798733277,0.0266152869835
1.61642675008195E+018,,,0,,1616426749,985300856,"""rgb_camera_link""","""obj-12""",,,-0.000336148519975,0.186957191563,0.731575430138,,-0.363329782984,0.901676688673,-0.201004461968,-0.120697241764
1.61642675011696E+018,,,0,,1616426750,18659331,"""rgb_camera_link""","""obj-4""",,,-0.178641394781,-0.214068761265,0.985690395195,,0.0171632713823,0.958332043776,-0.284002369911,0.0254513235909
1.61642675011697E+018,,,0,,1616426750,18659331,"""rgb_camera_link""","""obj-3""",,,-0.234382092995,-0.045935460734,0.873117713634,,0.0892300850365,0.953455049647,-0.284318694897,0.0460905625751
1.61642675011697E+018,,,0,,1616426750,18659331,"""rgb_camera_link""","""obj-7""",,,0.0462047227653,-0.231458660218,0.997288217479,,-0.452979590083,0.848187257,-0.243785924918,-0.126318212629
1.61642675011698E+018,,,0,,1616426750,18659331,"""rgb_camera_link""","""obj-10""",,,0.139422911164,-0.000181355007616,0.852520844913,,-0.258003770724,0.921575766232,-0.281573674083,-0.0696306502137
1.61642675011698E+018,,,0,,1616426750,18659331,"""rgb_camera_link""","""obj-12""",,,-0.000324371101931,0.187039493157,0.731842786452,,-0.363361929215,0.901766239255,-0.200637838845,-0.120541344614
1.6164267501497E+018,,,0,,1616426750,51996601,"""rgb_camera_link""","""obj-7""",,,0.0462583552821,-0.231689965262,0.998390021611,,-0.452352421757,0.848528352141,-0.244015990926,-0.125829719526
1.61642675014971E+018,,,0,,1616426750,51996601,"""rgb_camera_link""","""obj-10""",,,0.139383229789,-0.000177109941176,0.852332762292,,-0.257839354218,0.921410116166,-0.2818964242,-0.0711102754003
1.61642675014972E+018,,,0,,1616426750,51996601,"""rgb_camera_link""","""obj-4""",,,-0.178921488004,-0.214424266462,0.987213024159,,0.0173885003421,0.958474101639,-0.283370253311,0.0269506230256
1.61642675014972E+018,,,0,,1616426750,51996601,"""rgb_camera_link""","""obj-3""",,,-0.234328755234,-0.045932926287,0.872866421474,,0.0883699805547,0.953761832151,-0.283897025763,0.0439498900024
1.61642675014973E+018,,,0,,1616426750,51996601,"""rgb_camera_link""","""obj-12""",,,-0.00034192006592,0.187025511176,0.731786560836,,-0.36306861911,0.902244141675,-0.199255171917,-0.120141845728
1.61642675018411E+018,,,0,,1616426750,85341897,"""rgb_camera_link""","""obj-3""",,,-0.234340965575,-0.0459401193004,0.872923033926,,0.088217738928,0.953884893374,-0.28338238369,0.0448961618101
1.61642675018412E+018,,,0,,1616426750,85341897,"""rgb_camera_link""","""obj-4""",,,-0.178916156229,-0.214326594059,0.987050933186,,0.0167668938924,0.958867267613,-0.282043073732,0.0272789099652
1.61642675018412E+018,,,0,,1616426750,85341897,"""rgb_camera_link""","""obj-10""",,,0.139390979555,-0.000188336571396,0.852448040572,,-0.257988630792,0.921651410749,-0.281284786771,-0.0698527893337
1.61642675018413E+018,,,0,,1616426750,85341897,"""rgb_camera_link""","""obj-7""",,,0.0462699512888,-0.231588964113,0.997873710855,,-0.453445869006,0.848011345672,-0.243572899274,-0.126237253743
1.61642675018413E+018,,,0,,1616426750,85341897,"""rgb_camera_link""","""obj-12""",,,-0.000334182447433,0.186995161619,0.731645835748,,-0.363339670975,0.901779607768,-0.199931917407,-0.12167600795
1.61642675021746E+018,,,0,,1616426750,118660603,"""rgb_camera_link""","""obj-4""",,,-0.179008738313,-0.214522106048,0.987731103996,,0.017390807273,0.958527473337,-0.283194652189,0.026896684764
1.61642675021747E+018,,,0,,1616426750,118660603,"""rgb_camera_link""","""obj-10""",,,0.139458000597,-0.000174462411271,0.852807500607,,-0.258064582165,0.922009364899,-0.280350716989,-0.0685921129243
1.61642675021747E+018,,,0,,1616426750,118660603,"""rgb_camera_link""","""obj-7""",,,0.0462651359588,-0.23164375042,0.998085387475,,-0.452962715255,0.848269728934,-0.24384065983,-0.125717851463
1.61642675021748E+018,,,0,,1616426750,118660603,"""rgb_camera_link""","""obj-3""",,,-0.234121615206,-0.0459043703879,0.872201124916,,0.0889338101847,0.953566281579,-0.28432238033,0.0443047185387
1.61642675021748E+018,,,0,,1616426750,118660603,"""rgb_camera_link""","""obj-12""",,,-0.000312643148458,0.187009326744,0.731758228224,,-0.363929315409,0.901731038589,-0.199937409298,-0.120256475066
1.61642675025156E+018,,,0,,1616426750,152007717,"""rgb_camera_link""","""obj-7""",,,0.0462706894461,-0.231673966831,0.998242540794,,-0.452657343869,0.848360455953,-0.244003254244,-0.125889942945
1.61642675025157E+018,,,0,,1616426750,152007717,"""rgb_camera_link""","""obj-4""",,,-0.178923696351,-0.214429715159,0.987261700323,,0.0176533378985,0.958633875783,-0.282829099083,0.0267797045404
1.61642675025157E+018,,,0,,1616426750,152007717,"""rgb_camera_link""","""obj-3""",,,-0.234248525322,-0.0458994001906,0.872620035176,,0.0883587453723,0.953826331785,-0.283687606015,0.0439249712815
1.61642675025158E+018,,,0,,1616426750,152007717,"""rgb_camera_link""","""obj-10""",,,0.139485407371,-0.000193428566098,0.85290536205,,-0.258180295033,0.922008977942,-0.280239030678,-0.068618259498
1.61642675025159E+018,,,0,,1616426750,152007717,"""rgb_camera_link""","""obj-12""",,,-0.000319355549435,0.187055819769,0.731884797443,,-0.36297946585,0.901925085138,-0.200697378398,-0.120406023411
1.6164267502864E+018,,,0,,1616426750,185361192,"""rgb_camera_link""","""obj-10""",,,0.139383315745,-0.000166661114349,0.852287167111,,-0.257905532254,0.921622379438,-0.281296454907,-0.070492769906
1.61642675028641E+018,,,0,,1616426750,185361192,"""rgb_camera_link""","""obj-7""",,,0.0462900726106,-0.231525673782,0.997566327435,,-0.453143714517,0.848161071946,-0.243407483138,-0.126634778718
1.61642675028642E+018,,,0,,1616426750,185361192,"""rgb_camera_link""","""obj-4""",,,-0.178974738708,-0.214500435954,0.987545873965,,0.0173683114591,0.958496343615,-0.283181914201,0.0281265800234
1.61642675028643E+018,,,0,,1616426750,185361192,"""rgb_camera_link""","""obj-3""",,,-0.234291069052,-0.0459612606075,0.872753096482,,0.0884175221117,0.953699706861,-0.284002643439,0.0445163951361
1.61642675028644E+018,,,0,,1616426750,185361192,"""rgb_camera_link""","""obj-12""",,,-0.000327157247458,0.187039696155,0.731843704463,,-0.363289148558,0.902067612527,-0.199933377507,-0.11967314456
1.61642675032195E+018,,,0,,1616426750,218715079,"""rgb_camera_link""","""obj-7""",,,0.0462221046873,-0.23145996591,0.997256733595,,-0.45294349423,0.848201706194,-0.243781419988,-0.126359312727
